{
"type": "FeatureCollection",
"name": "shizhudi",
"features": [
{ "type": "Feature", "properties": { "name": "三亚市" }, "geometry": { "type": "Point", "coordinates": [ 109.513436612335866, 18.23800701653974 ] } },
{ "type": "Feature", "properties": { "name": "临沧" }, "geometry": { "type": "Point", "coordinates": [ 100.088220275073553, 23.88023092966499 ] } },
{ "type": "Feature", "properties": { "name": "思茅市" }, "geometry": { "type": "Point", "coordinates": [ 100.975438455890185, 22.79361338275984 ] } },
{ "type": "Feature", "properties": { "name": "景洪市" }, "geometry": { "type": "Point", "coordinates": [ 100.794064728837782, 22.013105853764646 ] } },
{ "type": "Feature", "properties": { "name": "个旧市" }, "geometry": { "type": "Point", "coordinates": [ 103.155593141339324, 23.35737714628652 ] } },
{ "type": "Feature", "properties": { "name": "百色市" }, "geometry": { "type": "Point", "coordinates": [ 106.611804257348894, 23.904741983024635 ] } },
{ "type": "Feature", "properties": { "name": "贵港市" }, "geometry": { "type": "Point", "coordinates": [ 109.608624248817193, 23.099276174967873 ] } },
{ "type": "Feature", "properties": { "name": "梧州市" }, "geometry": { "type": "Point", "coordinates": [ 111.308789131135597, 23.487087581315031 ] } },
{ "type": "Feature", "properties": { "name": "肇庆市" }, "geometry": { "type": "Point", "coordinates": [ 112.451921345257702, 23.058414545033564 ] } },
{ "type": "Feature", "properties": { "name": "清远市" }, "geometry": { "type": "Point", "coordinates": [ 113.022384004849712, 23.720919520207204 ] } },
{ "type": "Feature", "properties": { "name": "东莞市" }, "geometry": { "type": "Point", "coordinates": [ 113.750087227146651, 23.046800231475551 ] } },
{ "type": "Feature", "properties": { "name": "佛山市" }, "geometry": { "type": "Point", "coordinates": [ 113.116034569829552, 23.034964047386367 ] } },
{ "type": "Feature", "properties": { "name": "玉林市" }, "geometry": { "type": "Point", "coordinates": [ 110.14607442861454, 22.632269362834165 ] } },
{ "type": "Feature", "properties": { "name": "江门市" }, "geometry": { "type": "Point", "coordinates": [ 113.086393154129084, 22.589589427566072 ] } },
{ "type": "Feature", "properties": { "name": "中山市" }, "geometry": { "type": "Point", "coordinates": [ 113.37385874944124, 22.525977731493612 ] } },
{ "type": "Feature", "properties": { "name": "珠海市" }, "geometry": { "type": "Point", "coordinates": [ 113.571662200526461, 22.272858485833694 ] } },
{ "type": "Feature", "properties": { "name": "澳门" }, "geometry": { "type": "Point", "coordinates": [ 113.551881673049181, 22.199775094703028 ] } },
{ "type": "Feature", "properties": { "name": "钦州市" }, "geometry": { "type": "Point", "coordinates": [ 108.614562796962261, 21.951588634166747 ] } },
{ "type": "Feature", "properties": { "name": "北海市" }, "geometry": { "type": "Point", "coordinates": [ 109.121962416003754, 21.479408785259857 ] } },
{ "type": "Feature", "properties": { "name": "茂名市" }, "geometry": { "type": "Point", "coordinates": [ 110.893198010885655, 21.673223585752829 ] } },
{ "type": "Feature", "properties": { "name": "湛江市" }, "geometry": { "type": "Point", "coordinates": [ 110.402837593892855, 21.195057758066834 ] } },
{ "type": "Feature", "properties": { "name": "阳江市" }, "geometry": { "type": "Point", "coordinates": [ 111.959179474945429, 21.845575561076505 ] } },
{ "type": "Feature", "properties": { "name": "河源市" }, "geometry": { "type": "Point", "coordinates": [ 114.691747416617474, 23.737022909424482 ] } },
{ "type": "Feature", "properties": { "name": "惠州市" }, "geometry": { "type": "Point", "coordinates": [ 114.389710030463604, 23.090487970437625 ] } },
{ "type": "Feature", "properties": { "name": "揭阳市" }, "geometry": { "type": "Point", "coordinates": [ 116.350089863901232, 23.543157936244857 ] } },
{ "type": "Feature", "properties": { "name": "汕头市" }, "geometry": { "type": "Point", "coordinates": [ 116.68320599550114, 23.364132817207405 ] } },
{ "type": "Feature", "properties": { "name": "深圳市" }, "geometry": { "type": "Point", "coordinates": [ 114.111173422020443, 22.553268042680148 ] } },
{ "type": "Feature", "properties": { "name": "香港" }, "geometry": { "type": "Point", "coordinates": [ 114.162253891703045, 22.277251596539511 ] } },
{ "type": "Feature", "properties": { "name": "汕尾市" }, "geometry": { "type": "Point", "coordinates": [ 115.359778550666249, 22.771655041102385 ] } },
{ "type": "Feature", "properties": { "name": "嘉义市" }, "geometry": { "type": "Point", "coordinates": [ 120.44180959367587, 23.486966413935914 ] } },
{ "type": "Feature", "properties": { "name": "台南市" }, "geometry": { "type": "Point", "coordinates": [ 120.200653520768341, 23.004312938921014 ] } },
{ "type": "Feature", "properties": { "name": "屏东市" }, "geometry": { "type": "Point", "coordinates": [ 120.485468060306602, 22.682638168521983 ] } },
{ "type": "Feature", "properties": { "name": "高雄市" }, "geometry": { "type": "Point", "coordinates": [ 120.303534432031668, 22.63391969982343 ] } },
{ "type": "Feature", "properties": { "name": "香格里拉县" }, "geometry": { "type": "Point", "coordinates": [ 99.70688383982889, 27.817518076230709 ] } },
{ "type": "Feature", "properties": { "name": "丽江市" }, "geometry": { "type": "Point", "coordinates": [ 100.235973147363637, 26.874897786339183 ] } },
{ "type": "Feature", "properties": { "name": "攀枝花市" }, "geometry": { "type": "Point", "coordinates": [ 101.698163907096912, 26.554740448917585 ] } },
{ "type": "Feature", "properties": { "name": "保山市" }, "geometry": { "type": "Point", "coordinates": [ 99.166833044003113, 25.112665129827814 ] } },
{ "type": "Feature", "properties": { "name": "大理市" }, "geometry": { "type": "Point", "coordinates": [ 100.226283020149623, 25.590705654492517 ] } },
{ "type": "Feature", "properties": { "name": "楚雄市" }, "geometry": { "type": "Point", "coordinates": [ 101.542880381030884, 25.033293636384883 ] } },
{ "type": "Feature", "properties": { "name": "潞西市" }, "geometry": { "type": "Point", "coordinates": [ 98.588567257377775, 24.441736776642276 ] } },
{ "type": "Feature", "properties": { "name": "西昌市" }, "geometry": { "type": "Point", "coordinates": [ 102.266986296327545, 27.900098509671757 ] } },
{ "type": "Feature", "properties": { "name": "昭通市" }, "geometry": { "type": "Point", "coordinates": [ 103.715326748620399, 27.343547169662475 ] } },
{ "type": "Feature", "properties": { "name": "遵义市" }, "geometry": { "type": "Point", "coordinates": [ 106.931735030897201, 27.695897662893053 ] } },
{ "type": "Feature", "properties": { "name": "六盘水市" }, "geometry": { "type": "Point", "coordinates": [ 104.873480601490627, 26.577824622989503 ] } },
{ "type": "Feature", "properties": { "name": "安顺市" }, "geometry": { "type": "Point", "coordinates": [ 105.92797237263224, 26.243493358078609 ] } },
{ "type": "Feature", "properties": { "name": "凯里市" }, "geometry": { "type": "Point", "coordinates": [ 107.97719553893954, 26.591912213855405 ] } },
{ "type": "Feature", "properties": { "name": "都匀市" }, "geometry": { "type": "Point", "coordinates": [ 107.518905566123863, 26.26590236590323 ] } },
{ "type": "Feature", "properties": { "name": "曲靖市" }, "geometry": { "type": "Point", "coordinates": [ 103.796847389386002, 25.496080060591556 ] } },
{ "type": "Feature", "properties": { "name": "兴义市" }, "geometry": { "type": "Point", "coordinates": [ 104.896259945582429, 25.087572457577068 ] } },
{ "type": "Feature", "properties": { "name": "玉溪市" }, "geometry": { "type": "Point", "coordinates": [ 102.537360796200005, 24.355725078259315 ] } },
{ "type": "Feature", "properties": { "name": "铜仁市" }, "geometry": { "type": "Point", "coordinates": [ 109.192872686340479, 27.722751585689771 ] } },
{ "type": "Feature", "properties": { "name": "怀化市" }, "geometry": { "type": "Point", "coordinates": [ 109.957008402848189, 27.547380165777234 ] } },
{ "type": "Feature", "properties": { "name": "娄底市" }, "geometry": { "type": "Point", "coordinates": [ 111.992521290789398, 27.742122666962175 ] } },
{ "type": "Feature", "properties": { "name": "邵阳市" }, "geometry": { "type": "Point", "coordinates": [ 111.47516948278232, 27.249577123567931 ] } },
{ "type": "Feature", "properties": { "name": "湘潭市" }, "geometry": { "type": "Point", "coordinates": [ 112.911520710795131, 27.872969489202955 ] } },
{ "type": "Feature", "properties": { "name": "株洲市" }, "geometry": { "type": "Point", "coordinates": [ 113.150275621051918, 27.852826650899239 ] } },
{ "type": "Feature", "properties": { "name": "萍乡市" }, "geometry": { "type": "Point", "coordinates": [ 113.8389193320251, 27.631689095446401 ] } },
{ "type": "Feature", "properties": { "name": "永州市" }, "geometry": { "type": "Point", "coordinates": [ 111.612790239756904, 26.210580939973379 ] } },
{ "type": "Feature", "properties": { "name": "衡阳市" }, "geometry": { "type": "Point", "coordinates": [ 112.597291966430845, 26.901870544736525 ] } },
{ "type": "Feature", "properties": { "name": "桂林市" }, "geometry": { "type": "Point", "coordinates": [ 110.286461319028291, 25.28028591325694 ] } },
{ "type": "Feature", "properties": { "name": "郴州市" }, "geometry": { "type": "Point", "coordinates": [ 113.025398336187877, 25.802950711932709 ] } },
{ "type": "Feature", "properties": { "name": "河池市" }, "geometry": { "type": "Point", "coordinates": [ 108.049724587462549, 24.694315163872936 ] } },
{ "type": "Feature", "properties": { "name": "柳州市" }, "geometry": { "type": "Point", "coordinates": [ 109.404581796873074, 24.310196141327964 ] } },
{ "type": "Feature", "properties": { "name": "贺州市" }, "geometry": { "type": "Point", "coordinates": [ 111.534775293023159, 24.417466371900893 ] } },
{ "type": "Feature", "properties": { "name": "韶关市" }, "geometry": { "type": "Point", "coordinates": [ 113.603687927272944, 24.81042058377141 ] } },
{ "type": "Feature", "properties": { "name": "新余市" }, "geometry": { "type": "Point", "coordinates": [ 114.931442326471341, 27.804341068528888 ] } },
{ "type": "Feature", "properties": { "name": "宜春市" }, "geometry": { "type": "Point", "coordinates": [ 114.376180850691085, 27.794533075137885 ] } },
{ "type": "Feature", "properties": { "name": "吉安市" }, "geometry": { "type": "Point", "coordinates": [ 114.97158124273389, 27.103491722341428 ] } },
{ "type": "Feature", "properties": { "name": "临川市" }, "geometry": { "type": "Point", "coordinates": [ 116.351672031295678, 27.985047201561795 ] } },
{ "type": "Feature", "properties": { "name": "三明市" }, "geometry": { "type": "Point", "coordinates": [ 117.603472038137198, 26.22028098473389 ] } },
{ "type": "Feature", "properties": { "name": "南平市" }, "geometry": { "type": "Point", "coordinates": [ 118.169544692945777, 26.642410495669267 ] } },
{ "type": "Feature", "properties": { "name": "宁德市" }, "geometry": { "type": "Point", "coordinates": [ 119.517661690883784, 26.661450264534643 ] } },
{ "type": "Feature", "properties": { "name": "赣州市" }, "geometry": { "type": "Point", "coordinates": [ 114.93277720297894, 25.847228913778416 ] } },
{ "type": "Feature", "properties": { "name": "龙岩市" }, "geometry": { "type": "Point", "coordinates": [ 117.029497360532886, 25.103932234862338 ] } },
{ "type": "Feature", "properties": { "name": "莆田市" }, "geometry": { "type": "Point", "coordinates": [ 119.011477648213031, 25.434165668459823 ] } },
{ "type": "Feature", "properties": { "name": "梅州市" }, "geometry": { "type": "Point", "coordinates": [ 116.110817018386086, 24.315978226517355 ] } },
{ "type": "Feature", "properties": { "name": "漳州市" }, "geometry": { "type": "Point", "coordinates": [ 117.653398109866771, 24.511941570742479 ] } },
{ "type": "Feature", "properties": { "name": "泉州市" }, "geometry": { "type": "Point", "coordinates": [ 118.590267740558886, 24.909843863127531 ] } },
{ "type": "Feature", "properties": { "name": "厦门市" }, "geometry": { "type": "Point", "coordinates": [ 118.086336481231115, 24.450594398109764 ] } },
{ "type": "Feature", "properties": { "name": "基隆市" }, "geometry": { "type": "Point", "coordinates": [ 121.73854000951232, 25.132190571408504 ] } },
{ "type": "Feature", "properties": { "name": "台中市" }, "geometry": { "type": "Point", "coordinates": [ 120.671606056367139, 24.142563108836708 ] } },
{ "type": "Feature", "properties": { "name": "日喀则市" }, "geometry": { "type": "Point", "coordinates": [ 88.876580860948536, 29.272352268178487 ] } },
{ "type": "Feature", "properties": { "name": "林芝县" }, "geometry": { "type": "Point", "coordinates": [ 94.484113850519037, 29.580651161140782 ] } },
{ "type": "Feature", "properties": { "name": "昌都" }, "geometry": { "type": "Point", "coordinates": [ 97.166063461222038, 31.14347603234852 ] } },
{ "type": "Feature", "properties": { "name": "绵阳市" }, "geometry": { "type": "Point", "coordinates": [ 104.749392239138913, 31.459357501006583 ] } },
{ "type": "Feature", "properties": { "name": "德阳市" }, "geometry": { "type": "Point", "coordinates": [ 104.391094070384341, 31.132716560309909 ] } },
{ "type": "Feature", "properties": { "name": "巴中市" }, "geometry": { "type": "Point", "coordinates": [ 106.754896831463114, 31.849370058879977 ] } },
{ "type": "Feature", "properties": { "name": "达县市" }, "geometry": { "type": "Point", "coordinates": [ 107.500242208315157, 31.227312496020087 ] } },
{ "type": "Feature", "properties": { "name": "遂宁市" }, "geometry": { "type": "Point", "coordinates": [ 105.570319182873405, 30.504249744057724 ] } },
{ "type": "Feature", "properties": { "name": "南充市" }, "geometry": { "type": "Point", "coordinates": [ 106.080850643340341, 30.799322897766974 ] } },
{ "type": "Feature", "properties": { "name": "雅安市" }, "geometry": { "type": "Point", "coordinates": [ 102.984422595658131, 29.985879450319999 ] } },
{ "type": "Feature", "properties": { "name": "乐山市" }, "geometry": { "type": "Point", "coordinates": [ 103.751628946391207, 29.571001151200218 ] } },
{ "type": "Feature", "properties": { "name": "自贡市" }, "geometry": { "type": "Point", "coordinates": [ 104.77608086984695, 29.370633693669554 ] } },
{ "type": "Feature", "properties": { "name": "内江市" }, "geometry": { "type": "Point", "coordinates": [ 105.053987049342652, 29.58106953013267 ] } },
{ "type": "Feature", "properties": { "name": "宜宾市" }, "geometry": { "type": "Point", "coordinates": [ 104.616446933082059, 28.775131356085215 ] } },
{ "type": "Feature", "properties": { "name": "泸州市" }, "geometry": { "type": "Point", "coordinates": [ 105.437104595316057, 28.884663880790974 ] } },
{ "type": "Feature", "properties": { "name": "荆门市" }, "geometry": { "type": "Point", "coordinates": [ 112.198673607033768, 31.029060368030883 ] } },
{ "type": "Feature", "properties": { "name": "恩施市" }, "geometry": { "type": "Point", "coordinates": [ 109.478803378167527, 30.272581820848853 ] } },
{ "type": "Feature", "properties": { "name": "宜昌市" }, "geometry": { "type": "Point", "coordinates": [ 111.287353203406127, 30.704555003611485 ] } },
{ "type": "Feature", "properties": { "name": "沙市市" }, "geometry": { "type": "Point", "coordinates": [ 112.248952825391967, 30.316629928360861 ] } },
{ "type": "Feature", "properties": { "name": "孝感市" }, "geometry": { "type": "Point", "coordinates": [ 113.910639970817215, 30.926548855674369 ] } },
{ "type": "Feature", "properties": { "name": "大庸市" }, "geometry": { "type": "Point", "coordinates": [ 110.484922564911216, 29.128252580022885 ] } },
{ "type": "Feature", "properties": { "name": "常德市" }, "geometry": { "type": "Point", "coordinates": [ 111.691537887851467, 29.03510278677081 ] } },
{ "type": "Feature", "properties": { "name": "岳阳市" }, "geometry": { "type": "Point", "coordinates": [ 113.097928367182931, 29.371559483998603 ] } },
{ "type": "Feature", "properties": { "name": "吉首市" }, "geometry": { "type": "Point", "coordinates": [ 109.733215083868515, 28.310632119149929 ] } },
{ "type": "Feature", "properties": { "name": "益阳市" }, "geometry": { "type": "Point", "coordinates": [ 112.335540415439894, 28.598095335750394 ] } },
{ "type": "Feature", "properties": { "name": "麻城市" }, "geometry": { "type": "Point", "coordinates": [ 115.0312846504861, 31.181246951606372 ] } },
{ "type": "Feature", "properties": { "name": "六安市" }, "geometry": { "type": "Point", "coordinates": [ 116.494467795909671, 31.754930720026906 ] } },
{ "type": "Feature", "properties": { "name": "巢湖市" }, "geometry": { "type": "Point", "coordinates": [ 117.865226222326513, 31.602065039143579 ] } },
{ "type": "Feature", "properties": { "name": "马鞍山市" }, "geometry": { "type": "Point", "coordinates": [ 118.483059737323075, 31.725587430698873 ] } },
{ "type": "Feature", "properties": { "name": "芜湖市" }, "geometry": { "type": "Point", "coordinates": [ 118.363005604359401, 31.335271700136879 ] } },
{ "type": "Feature", "properties": { "name": "常州市" }, "geometry": { "type": "Point", "coordinates": [ 119.952720776227238, 31.783109796009473 ] } },
{ "type": "Feature", "properties": { "name": "鄂州市" }, "geometry": { "type": "Point", "coordinates": [ 114.880218936443512, 30.403032888006695 ] } },
{ "type": "Feature", "properties": { "name": "黄石市" }, "geometry": { "type": "Point", "coordinates": [ 115.076972486540541, 30.212712881563402 ] } },
{ "type": "Feature", "properties": { "name": "铜陵市" }, "geometry": { "type": "Point", "coordinates": [ 117.813882466383262, 30.923719802938194 ] } },
{ "type": "Feature", "properties": { "name": "贵池市" }, "geometry": { "type": "Point", "coordinates": [ 117.482194502144353, 30.654973818662025 ] } },
{ "type": "Feature", "properties": { "name": "安庆市" }, "geometry": { "type": "Point", "coordinates": [ 117.035034621931558, 30.512606435790332 ] } },
{ "type": "Feature", "properties": { "name": "宣州市" }, "geometry": { "type": "Point", "coordinates": [ 118.742891958760922, 30.947255486545068 ] } },
{ "type": "Feature", "properties": { "name": "咸宁市" }, "geometry": { "type": "Point", "coordinates": [ 114.271914549799163, 29.892785773412392 ] } },
{ "type": "Feature", "properties": { "name": "九江市" }, "geometry": { "type": "Point", "coordinates": [ 115.98600997179858, 29.722663551520114 ] } },
{ "type": "Feature", "properties": { "name": "景德镇市" }, "geometry": { "type": "Point", "coordinates": [ 117.210643951007626, 29.290930385450043 ] } },
{ "type": "Feature", "properties": { "name": "黄山市" }, "geometry": { "type": "Point", "coordinates": [ 118.309478159135466, 29.715972213830383 ] } },
{ "type": "Feature", "properties": { "name": "金华市" }, "geometry": { "type": "Point", "coordinates": [ 119.650323283126568, 29.104990053279593 ] } },
{ "type": "Feature", "properties": { "name": "上饶市" }, "geometry": { "type": "Point", "coordinates": [ 117.965256548401143, 28.450961778796671 ] } },
{ "type": "Feature", "properties": { "name": "鹰潭市" }, "geometry": { "type": "Point", "coordinates": [ 117.032896790710325, 28.241388313397209 ] } },
{ "type": "Feature", "properties": { "name": "衢州市" }, "geometry": { "type": "Point", "coordinates": [ 118.868036783793983, 28.957098633008776 ] } },
{ "type": "Feature", "properties": { "name": "丽水市" }, "geometry": { "type": "Point", "coordinates": [ 119.913416081481714, 28.448997211542174 ] } },
{ "type": "Feature", "properties": { "name": "无锡市" }, "geometry": { "type": "Point", "coordinates": [ 120.298097020590689, 31.574934900323495 ] } },
{ "type": "Feature", "properties": { "name": "苏州市" }, "geometry": { "type": "Point", "coordinates": [ 120.619052476461192, 31.313025108633845 ] } },
{ "type": "Feature", "properties": { "name": "湖州市" }, "geometry": { "type": "Point", "coordinates": [ 120.099729750049718, 30.865272740595042 ] } },
{ "type": "Feature", "properties": { "name": "嘉兴市" }, "geometry": { "type": "Point", "coordinates": [ 120.753632784057331, 30.76777382668422 ] } },
{ "type": "Feature", "properties": { "name": "绍兴市" }, "geometry": { "type": "Point", "coordinates": [ 120.578685867433222, 30.004806584756743 ] } },
{ "type": "Feature", "properties": { "name": "舟山市" }, "geometry": { "type": "Point", "coordinates": [ 122.101556831465118, 30.015446670774732 ] } },
{ "type": "Feature", "properties": { "name": "宁波市" }, "geometry": { "type": "Point", "coordinates": [ 121.543104866863573, 29.866601895069046 ] } },
{ "type": "Feature", "properties": { "name": "温州市" }, "geometry": { "type": "Point", "coordinates": [ 120.653639298459922, 28.018546064479835 ] } },
{ "type": "Feature", "properties": { "name": "临夏市" }, "geometry": { "type": "Point", "coordinates": [ 103.211231254545254, 35.607713755119242 ] } },
{ "type": "Feature", "properties": { "name": "平凉市" }, "geometry": { "type": "Point", "coordinates": [ 106.685801217243849, 35.536271528245607 ] } },
{ "type": "Feature", "properties": { "name": "西峰市" }, "geometry": { "type": "Point", "coordinates": [ 107.638273481982409, 35.736975985415484 ] } },
{ "type": "Feature", "properties": { "name": "天水市" }, "geometry": { "type": "Point", "coordinates": [ 105.717077577295385, 34.585880110794484 ] } },
{ "type": "Feature", "properties": { "name": "宝鸡市" }, "geometry": { "type": "Point", "coordinates": [ 107.140529546053898, 34.382272799793618 ] } },
{ "type": "Feature", "properties": { "name": "汉中市" }, "geometry": { "type": "Point", "coordinates": [ 107.035334953813944, 33.076863727567201 ] } },
{ "type": "Feature", "properties": { "name": "广元市" }, "geometry": { "type": "Point", "coordinates": [ 105.833107289615484, 32.444258158852463 ] } },
{ "type": "Feature", "properties": { "name": "铜川市" }, "geometry": { "type": "Point", "coordinates": [ 109.058914484742928, 35.076607834638132 ] } },
{ "type": "Feature", "properties": { "name": "运城市" }, "geometry": { "type": "Point", "coordinates": [ 110.993688140470582, 35.014805258277022 ] } },
{ "type": "Feature", "properties": { "name": "晋城市" }, "geometry": { "type": "Point", "coordinates": [ 112.839441363076858, 35.504731166281161 ] } },
{ "type": "Feature", "properties": { "name": "新乡市" }, "geometry": { "type": "Point", "coordinates": [ 113.868553806384924, 35.3103471740923 ] } },
{ "type": "Feature", "properties": { "name": "焦作市" }, "geometry": { "type": "Point", "coordinates": [ 113.222719100244362, 35.251540697593377 ] } },
{ "type": "Feature", "properties": { "name": "咸阳市" }, "geometry": { "type": "Point", "coordinates": [ 108.710134909983609, 34.339453866923641 ] } },
{ "type": "Feature", "properties": { "name": "渭南市" }, "geometry": { "type": "Point", "coordinates": [ 109.501443121973026, 34.503399622216563 ] } },
{ "type": "Feature", "properties": { "name": "三门峡市" }, "geometry": { "type": "Point", "coordinates": [ 111.19521200462259, 34.782103624611835 ] } },
{ "type": "Feature", "properties": { "name": "洛阳市" }, "geometry": { "type": "Point", "coordinates": [ 112.38289829163908, 34.66567501893779 ] } },
{ "type": "Feature", "properties": { "name": "许昌市" }, "geometry": { "type": "Point", "coordinates": [ 113.820048103017783, 34.031775173164959 ] } },
{ "type": "Feature", "properties": { "name": "商州市" }, "geometry": { "type": "Point", "coordinates": [ 109.932671249535616, 33.870281262474286 ] } },
{ "type": "Feature", "properties": { "name": "南阳市" }, "geometry": { "type": "Point", "coordinates": [ 112.535736496503361, 33.002046264902837 ] } },
{ "type": "Feature", "properties": { "name": "平顶山市" }, "geometry": { "type": "Point", "coordinates": [ 113.300795677869274, 33.747908232615679 ] } },
{ "type": "Feature", "properties": { "name": "安康市" }, "geometry": { "type": "Point", "coordinates": [ 109.027158450114896, 32.693994941066983 ] } },
{ "type": "Feature", "properties": { "name": "十堰市" }, "geometry": { "type": "Point", "coordinates": [ 110.784767099774143, 32.657077344665687 ] } },
{ "type": "Feature", "properties": { "name": "丹江口市" }, "geometry": { "type": "Point", "coordinates": [ 111.508082677935718, 32.54609593564998 ] } },
{ "type": "Feature", "properties": { "name": "襄樊市" }, "geometry": { "type": "Point", "coordinates": [ 112.13941509330391, 32.049572486873025 ] } },
{ "type": "Feature", "properties": { "name": "鹤壁市" }, "geometry": { "type": "Point", "coordinates": [ 114.17398295409582, 35.904477046111666 ] } },
{ "type": "Feature", "properties": { "name": "菏泽市" }, "geometry": { "type": "Point", "coordinates": [ 115.444468766598646, 35.250653917653636 ] } },
{ "type": "Feature", "properties": { "name": "濮阳市" }, "geometry": { "type": "Point", "coordinates": [ 115.006261069904085, 35.754696141020496 ] } },
{ "type": "Feature", "properties": { "name": "济宁市" }, "geometry": { "type": "Point", "coordinates": [ 116.578234640142881, 35.410832477246309 ] } },
{ "type": "Feature", "properties": { "name": "临沂市" }, "geometry": { "type": "Point", "coordinates": [ 118.341351873261914, 35.071949880026864 ] } },
{ "type": "Feature", "properties": { "name": "日照市" }, "geometry": { "type": "Point", "coordinates": [ 119.546839841764182, 35.393572407940837 ] } },
{ "type": "Feature", "properties": { "name": "开封市" }, "geometry": { "type": "Point", "coordinates": [ 114.343642442653248, 34.785873521280962 ] } },
{ "type": "Feature", "properties": { "name": "商丘市" }, "geometry": { "type": "Point", "coordinates": [ 115.646409940309994, 34.448048951278032 ] } },
{ "type": "Feature", "properties": { "name": "枣庄市" }, "geometry": { "type": "Point", "coordinates": [ 117.560173820598123, 34.87280987284138 ] } },
{ "type": "Feature", "properties": { "name": "徐州市" }, "geometry": { "type": "Point", "coordinates": [ 117.188052957180616, 34.270013265660062 ] } },
{ "type": "Feature", "properties": { "name": "连云港市" }, "geometry": { "type": "Point", "coordinates": [ 119.171377620023776, 34.605030819514724 ] } },
{ "type": "Feature", "properties": { "name": "周口市" }, "geometry": { "type": "Point", "coordinates": [ 114.635654605372252, 33.629875839843969 ] } },
{ "type": "Feature", "properties": { "name": "漯河市" }, "geometry": { "type": "Point", "coordinates": [ 114.040551360214224, 33.573846301084515 ] } },
{ "type": "Feature", "properties": { "name": "淮北市" }, "geometry": { "type": "Point", "coordinates": [ 116.789932992995432, 33.971624103708521 ] } },
{ "type": "Feature", "properties": { "name": "宿州市" }, "geometry": { "type": "Point", "coordinates": [ 116.97176554766456, 33.642736647412114 ] } },
{ "type": "Feature", "properties": { "name": "宿迁市" }, "geometry": { "type": "Point", "coordinates": [ 118.297455615802036, 33.958672225605874 ] } },
{ "type": "Feature", "properties": { "name": "淮阴市" }, "geometry": { "type": "Point", "coordinates": [ 119.017099356736196, 33.588717271459601 ] } },
{ "type": "Feature", "properties": { "name": "驻马店市" }, "geometry": { "type": "Point", "coordinates": [ 114.035089196118193, 32.976541400192062 ] } },
{ "type": "Feature", "properties": { "name": "信阳市" }, "geometry": { "type": "Point", "coordinates": [ 114.069537149184924, 32.131467794127602 ] } },
{ "type": "Feature", "properties": { "name": "阜阳市" }, "geometry": { "type": "Point", "coordinates": [ 115.80934743762208, 32.903415545016486 ] } },
{ "type": "Feature", "properties": { "name": "蚌埠市" }, "geometry": { "type": "Point", "coordinates": [ 117.363001034661892, 32.941589834346075 ] } },
{ "type": "Feature", "properties": { "name": "淮南市" }, "geometry": { "type": "Point", "coordinates": [ 117.022102407481, 32.61908999018798 ] } },
{ "type": "Feature", "properties": { "name": "滁州市" }, "geometry": { "type": "Point", "coordinates": [ 118.304548469887351, 32.31733469845382 ] } },
{ "type": "Feature", "properties": { "name": "泰州市" }, "geometry": { "type": "Point", "coordinates": [ 119.911663199891507, 32.496210743440372 ] } },
{ "type": "Feature", "properties": { "name": "扬州市" }, "geometry": { "type": "Point", "coordinates": [ 119.437602738038422, 32.391608439093645 ] } },
{ "type": "Feature", "properties": { "name": "镇江市" }, "geometry": { "type": "Point", "coordinates": [ 119.444702050744198, 32.206825091866094 ] } },
{ "type": "Feature", "properties": { "name": "盐城市" }, "geometry": { "type": "Point", "coordinates": [ 120.134152180352586, 33.385515857928866 ] } },
{ "type": "Feature", "properties": { "name": "南通市" }, "geometry": { "type": "Point", "coordinates": [ 120.855080633123407, 32.010797825568424 ] } },
{ "type": "Feature", "properties": { "name": "喀什市" }, "geometry": { "type": "Point", "coordinates": [ 75.986029908239573, 39.466878761886456 ] } },
{ "type": "Feature", "properties": { "name": "和田市" }, "geometry": { "type": "Point", "coordinates": [ 79.927617143022715, 37.106337893190847 ] } },
{ "type": "Feature", "properties": { "name": "嘉峪关市" }, "geometry": { "type": "Point", "coordinates": [ 98.27286304119292, 39.802956393490525 ] } },
{ "type": "Feature", "properties": { "name": "酒泉市" }, "geometry": { "type": "Point", "coordinates": [ 98.511202909140138, 39.745445488506093 ] } },
{ "type": "Feature", "properties": { "name": "张掖市" }, "geometry": { "type": "Point", "coordinates": [ 100.449917316327259, 38.933602545283115 ] } },
{ "type": "Feature", "properties": { "name": "德令哈市" }, "geometry": { "type": "Point", "coordinates": [ 97.355896237240259, 37.36911647277072 ] } },
{ "type": "Feature", "properties": { "name": "乌海市" }, "geometry": { "type": "Point", "coordinates": [ 106.818172474877045, 39.672213526673481 ] } },
{ "type": "Feature", "properties": { "name": "石嘴山市" }, "geometry": { "type": "Point", "coordinates": [ 106.379820523340982, 39.022151613631721 ] } },
{ "type": "Feature", "properties": { "name": "金昌市" }, "geometry": { "type": "Point", "coordinates": [ 102.165478523730641, 38.492318414730491 ] } },
{ "type": "Feature", "properties": { "name": "武威市" }, "geometry": { "type": "Point", "coordinates": [ 102.634749403219018, 37.927389121051995 ] } },
{ "type": "Feature", "properties": { "name": "白银市" }, "geometry": { "type": "Point", "coordinates": [ 104.174274486097005, 36.546710308493019 ] } },
{ "type": "Feature", "properties": { "name": "东胜市" }, "geometry": { "type": "Point", "coordinates": [ 110.000859927037695, 39.816772814853145 ] } },
{ "type": "Feature", "properties": { "name": "朔州市" }, "geometry": { "type": "Point", "coordinates": [ 112.421806041532705, 39.308548581833357 ] } },
{ "type": "Feature", "properties": { "name": "榆林市" }, "geometry": { "type": "Point", "coordinates": [ 109.754089213117481, 38.295177545326375 ] } },
{ "type": "Feature", "properties": { "name": "忻州市" }, "geometry": { "type": "Point", "coordinates": [ 112.731489685907817, 38.399027915519234 ] } },
{ "type": "Feature", "properties": { "name": "榆次区" }, "geometry": { "type": "Point", "coordinates": [ 112.744967175990595, 37.67891919751893 ] } },
{ "type": "Feature", "properties": { "name": "阳泉市" }, "geometry": { "type": "Point", "coordinates": [ 113.573157124990331, 37.861541330128148 ] } },
{ "type": "Feature", "properties": { "name": "延安市" }, "geometry": { "type": "Point", "coordinates": [ 109.470117735064122, 36.592247638231498 ] } },
{ "type": "Feature", "properties": { "name": "临汾市" }, "geometry": { "type": "Point", "coordinates": [ 111.51568323589774, 36.078463441485134 ] } },
{ "type": "Feature", "properties": { "name": "长治市" }, "geometry": { "type": "Point", "coordinates": [ 113.103779784617331, 36.183961735278587 ] } },
{ "type": "Feature", "properties": { "name": "廊坊市" }, "geometry": { "type": "Point", "coordinates": [ 116.692507839106824, 39.519446851541623 ] } },
{ "type": "Feature", "properties": { "name": "唐山市" }, "geometry": { "type": "Point", "coordinates": [ 118.192803432497058, 39.621105348585878 ] } },
{ "type": "Feature", "properties": { "name": "秦皇岛市" }, "geometry": { "type": "Point", "coordinates": [ 119.596097950121688, 39.926307181140132 ] } },
{ "type": "Feature", "properties": { "name": "保定市" }, "geometry": { "type": "Point", "coordinates": [ 115.502446538670952, 38.856166234072745 ] } },
{ "type": "Feature", "properties": { "name": "沧州市" }, "geometry": { "type": "Point", "coordinates": [ 116.862355215524914, 38.309453460257266 ] } },
{ "type": "Feature", "properties": { "name": "邢台市" }, "geometry": { "type": "Point", "coordinates": [ 114.494584999254343, 37.066793849440316 ] } },
{ "type": "Feature", "properties": { "name": "衡水市" }, "geometry": { "type": "Point", "coordinates": [ 115.706085728091253, 37.726606962146249 ] } },
{ "type": "Feature", "properties": { "name": "德州市" }, "geometry": { "type": "Point", "coordinates": [ 116.287777699671082, 37.45208337850228 ] } },
{ "type": "Feature", "properties": { "name": "东营市" }, "geometry": { "type": "Point", "coordinates": [ 118.495627777284895, 37.460239182625187 ] } },
{ "type": "Feature", "properties": { "name": "邯郸市" }, "geometry": { "type": "Point", "coordinates": [ 114.472362500212384, 36.593903534528827 ] } },
{ "type": "Feature", "properties": { "name": "安阳市" }, "geometry": { "type": "Point", "coordinates": [ 114.345817606541701, 36.098763063629271 ] } },
{ "type": "Feature", "properties": { "name": "聊城市" }, "geometry": { "type": "Point", "coordinates": [ 115.989046181448984, 36.448160638216251 ] } },
{ "type": "Feature", "properties": { "name": "泰安市" }, "geometry": { "type": "Point", "coordinates": [ 117.127570496128342, 36.189412562866622 ] } },
{ "type": "Feature", "properties": { "name": "潍坊市" }, "geometry": { "type": "Point", "coordinates": [ 119.106927255006852, 36.703120862478698 ] } },
{ "type": "Feature", "properties": { "name": "淄博市" }, "geometry": { "type": "Point", "coordinates": [ 118.058784355796377, 36.792467082047516 ] } },
{ "type": "Feature", "properties": { "name": "大连市" }, "geometry": { "type": "Point", "coordinates": [ 121.590816628285594, 38.912629937954556 ] } },
{ "type": "Feature", "properties": { "name": "青岛市" }, "geometry": { "type": "Point", "coordinates": [ 120.34719110037841, 36.078994450295035 ] } },
{ "type": "Feature", "properties": { "name": "威海市" }, "geometry": { "type": "Point", "coordinates": [ 122.108758564857894, 37.501336873130889 ] } },
{ "type": "Feature", "properties": { "name": "烟台市" }, "geometry": { "type": "Point", "coordinates": [ 121.37978267401013, 37.534429464776785 ] } },
{ "type": "Feature", "properties": { "name": "伊宁市" }, "geometry": { "type": "Point", "coordinates": [ 81.319491509866097, 43.915893013977346 ] } },
{ "type": "Feature", "properties": { "name": "吐鲁番市" }, "geometry": { "type": "Point", "coordinates": [ 89.180884819373148, 42.94084488347707 ] } },
{ "type": "Feature", "properties": { "name": "哈密市" }, "geometry": { "type": "Point", "coordinates": [ 93.518543046376223, 42.819612747082715 ] } },
{ "type": "Feature", "properties": { "name": "临河市" }, "geometry": { "type": "Point", "coordinates": [ 107.397229209583287, 40.761682749701137 ] } },
{ "type": "Feature", "properties": { "name": "集宁市" }, "geometry": { "type": "Point", "coordinates": [ 113.096559785723684, 41.029127515768664 ] } },
{ "type": "Feature", "properties": { "name": "包头市" }, "geometry": { "type": "Point", "coordinates": [ 109.74898664280424, 40.660926971027486 ] } },
{ "type": "Feature", "properties": { "name": "大同市" }, "geometry": { "type": "Point", "coordinates": [ 113.296700299326332, 40.093330929752661 ] } },
{ "type": "Feature", "properties": { "name": "赤峰市" }, "geometry": { "type": "Point", "coordinates": [ 118.952909051568597, 42.269500747234339 ] } },
{ "type": "Feature", "properties": { "name": "张家口市" }, "geometry": { "type": "Point", "coordinates": [ 114.886291887749593, 40.791756335643854 ] } },
{ "type": "Feature", "properties": { "name": "承德市" }, "geometry": { "type": "Point", "coordinates": [ 117.920275443978326, 40.966287059653396 ] } },
{ "type": "Feature", "properties": { "name": "通辽市" }, "geometry": { "type": "Point", "coordinates": [ 122.261069766987774, 43.611376923875731 ] } },
{ "type": "Feature", "properties": { "name": "四平市" }, "geometry": { "type": "Point", "coordinates": [ 124.376006011274839, 43.167572276257417 ] } },
{ "type": "Feature", "properties": { "name": "阜新市" }, "geometry": { "type": "Point", "coordinates": [ 121.648641341873898, 42.009779973995421 ] } },
{ "type": "Feature", "properties": { "name": "铁岭市" }, "geometry": { "type": "Point", "coordinates": [ 123.848425438004952, 42.295998086062326 ] } },
{ "type": "Feature", "properties": { "name": "辽源市" }, "geometry": { "type": "Point", "coordinates": [ 125.137541354103092, 42.911014201415817 ] } },
{ "type": "Feature", "properties": { "name": "朝阳市" }, "geometry": { "type": "Point", "coordinates": [ 120.45126969884106, 41.580575212767123 ] } },
{ "type": "Feature", "properties": { "name": "锦州市" }, "geometry": { "type": "Point", "coordinates": [ 121.135812231304428, 41.113340562816383 ] } },
{ "type": "Feature", "properties": { "name": "盘锦市" }, "geometry": { "type": "Point", "coordinates": [ 122.071124068054161, 41.12133152840476 ] } },
{ "type": "Feature", "properties": { "name": "抚顺市" }, "geometry": { "type": "Point", "coordinates": [ 123.78942002499187, 41.846498152788442 ] } },
{ "type": "Feature", "properties": { "name": "本溪市" }, "geometry": { "type": "Point", "coordinates": [ 123.764224580372399, 41.290585287224111 ] } },
{ "type": "Feature", "properties": { "name": "辽阳市" }, "geometry": { "type": "Point", "coordinates": [ 123.16853065292517, 41.266325778173368 ] } },
{ "type": "Feature", "properties": { "name": "鞍山市" }, "geometry": { "type": "Point", "coordinates": [ 123.021296579293292, 41.185469161996075 ] } },
{ "type": "Feature", "properties": { "name": "通化市" }, "geometry": { "type": "Point", "coordinates": [ 125.921747870321767, 41.723999164330117 ] } },
{ "type": "Feature", "properties": { "name": "葫芦岛市" }, "geometry": { "type": "Point", "coordinates": [ 120.849432878300874, 40.756478897539559 ] } },
{ "type": "Feature", "properties": { "name": "营口市" }, "geometry": { "type": "Point", "coordinates": [ 122.228184130764276, 40.669206381726482 ] } },
{ "type": "Feature", "properties": { "name": "丹东市" }, "geometry": { "type": "Point", "coordinates": [ 124.384248886542395, 40.135949436339622 ] } },
{ "type": "Feature", "properties": { "name": "吉林市" }, "geometry": { "type": "Point", "coordinates": [ 126.566725165875184, 43.908248887464545 ] } },
{ "type": "Feature", "properties": { "name": "延吉市" }, "geometry": { "type": "Point", "coordinates": [ 129.510891506046221, 42.910741918202255 ] } },
{ "type": "Feature", "properties": { "name": "白山市" }, "geometry": { "type": "Point", "coordinates": [ 126.421281200439651, 41.926815670418755 ] } },
{ "type": "Feature", "properties": { "name": "阿勒泰市" }, "geometry": { "type": "Point", "coordinates": [ 88.142279069882804, 47.853660824165182 ] } },
{ "type": "Feature", "properties": { "name": "克拉玛依市" }, "geometry": { "type": "Point", "coordinates": [ 84.864291834931308, 45.59150202630903 ] } },
{ "type": "Feature", "properties": { "name": "奎屯市" }, "geometry": { "type": "Point", "coordinates": [ 84.895871004174367, 44.423923315181334 ] } },
{ "type": "Feature", "properties": { "name": "石河子市" }, "geometry": { "type": "Point", "coordinates": [ 86.033397732657548, 44.29375609996525 ] } },
{ "type": "Feature", "properties": { "name": "昌吉市" }, "geometry": { "type": "Point", "coordinates": [ 87.306869781742279, 44.01843660043253 ] } },
{ "type": "Feature", "properties": { "name": "齐齐哈尔市" }, "geometry": { "type": "Point", "coordinates": [ 123.964470945897716, 47.345564070760346 ] } },
{ "type": "Feature", "properties": { "name": "乌兰浩特市" }, "geometry": { "type": "Point", "coordinates": [ 122.069718777279434, 46.063755409036951 ] } },
{ "type": "Feature", "properties": { "name": "大庆市" }, "geometry": { "type": "Point", "coordinates": [ 125.025788673632945, 46.592716771686597 ] } },
{ "type": "Feature", "properties": { "name": "白城市" }, "geometry": { "type": "Point", "coordinates": [ 122.841763441283021, 45.612835526555543 ] } },
{ "type": "Feature", "properties": { "name": "松原市" }, "geometry": { "type": "Point", "coordinates": [ 124.822667428977283, 45.173133224341939 ] } },
{ "type": "Feature", "properties": { "name": "鹤岗市" }, "geometry": { "type": "Point", "coordinates": [ 130.293127805178869, 47.346222874461958 ] } },
{ "type": "Feature", "properties": { "name": "伊春市" }, "geometry": { "type": "Point", "coordinates": [ 128.904629571732215, 47.723061701773204 ] } },
{ "type": "Feature", "properties": { "name": "牡丹江市" }, "geometry": { "type": "Point", "coordinates": [ 129.596543546812654, 44.581134738973141 ] } },
{ "type": "Feature", "properties": { "name": "绥化市" }, "geometry": { "type": "Point", "coordinates": [ 126.98243755645133, 46.638107941452184 ] } },
{ "type": "Feature", "properties": { "name": "佳木斯市" }, "geometry": { "type": "Point", "coordinates": [ 130.36539165900254, 46.809715602177398 ] } },
{ "type": "Feature", "properties": { "name": "双鸭山市" }, "geometry": { "type": "Point", "coordinates": [ 131.156697893990895, 46.637943647966765 ] } },
{ "type": "Feature", "properties": { "name": "七台河市" }, "geometry": { "type": "Point", "coordinates": [ 130.878569493238132, 45.807561462510087 ] } },
{ "type": "Feature", "properties": { "name": "鸡西市" }, "geometry": { "type": "Point", "coordinates": [ 130.951484140902352, 45.296494449420415 ] } },
{ "type": "Feature", "properties": { "name": "海拉尔市" }, "geometry": { "type": "Point", "coordinates": [ 119.731660929787225, 49.207331692391875 ] } },
{ "type": "Feature", "properties": { "name": "黑河市" }, "geometry": { "type": "Point", "coordinates": [ 127.484201898755103, 50.242474216270601 ] } },
{ "type": "Feature", "properties": { "name": "泽当" }, "geometry": { "type": "Point", "coordinates": [ 91.780367510120072, 29.242717470365523 ] } },
{ "type": "Feature", "properties": { "name": "文山县" }, "geometry": { "type": "Point", "coordinates": [ 104.235625246891118, 23.376325078460841 ] } },
{ "type": "Feature", "properties": { "name": "潮州市" }, "geometry": { "type": "Point", "coordinates": [ 116.63698583216771, 23.667889728041398 ] } },
{ "type": "Feature", "properties": { "name": "那曲县" }, "geometry": { "type": "Point", "coordinates": [ 92.056057178431544, 31.480538194828103 ] } },
{ "type": "Feature", "properties": { "name": "玛沁县" }, "geometry": { "type": "Point", "coordinates": [ 100.246182821104654, 34.474434523101387 ] } },
{ "type": "Feature", "properties": { "name": "合作市" }, "geometry": { "type": "Point", "coordinates": [ 102.901853698075314, 34.989217531409828 ] } },
{ "type": "Feature", "properties": { "name": "同仁县" }, "geometry": { "type": "Point", "coordinates": [ 102.008923434350535, 35.511886468993474 ] } },
{ "type": "Feature", "properties": { "name": "定西县" }, "geometry": { "type": "Point", "coordinates": [ 104.620403741947456, 35.575519258959893 ] } },
{ "type": "Feature", "properties": { "name": "固原县" }, "geometry": { "type": "Point", "coordinates": [ 106.278232644327446, 36.014528716801898 ] } },
{ "type": "Feature", "properties": { "name": "莱芜市" }, "geometry": { "type": "Point", "coordinates": [ 117.662122493193493, 36.205528120607745 ] } },
{ "type": "Feature", "properties": { "name": "门源回族自治县" }, "geometry": { "type": "Point", "coordinates": [ 101.615124931205528, 37.374477485228084 ] } },
{ "type": "Feature", "properties": { "name": "平安县" }, "geometry": { "type": "Point", "coordinates": [ 102.104796094095121, 36.497557460634752 ] } },
{ "type": "Feature", "properties": { "name": "共和县" }, "geometry": { "type": "Point", "coordinates": [ 100.616261288761294, 36.280531738696958 ] } },
{ "type": "Feature", "properties": { "name": "离石市" }, "geometry": { "type": "Point", "coordinates": [ 111.135429142466691, 37.510557869092914 ] } },
{ "type": "Feature", "properties": { "name": "阿拉善左旗" }, "geometry": { "type": "Point", "coordinates": [ 105.665693015193995, 38.842331232430602 ] } },
{ "type": "Feature", "properties": { "name": "库尔勒市" }, "geometry": { "type": "Point", "coordinates": [ 86.135901453622438, 41.757310364639032 ] } },
{ "type": "Feature", "properties": { "name": "锡林浩特市" }, "geometry": { "type": "Point", "coordinates": [ 116.069609785839489, 43.945800077839202 ] } },
{ "type": "Feature", "properties": { "name": "塔城市" }, "geometry": { "type": "Point", "coordinates": [ 82.984724641675143, 46.748858026443536 ] } },
{ "type": "Feature", "properties": { "name": "博乐市" }, "geometry": { "type": "Point", "coordinates": [ 82.072722027739729, 44.907196109060436 ] } },
{ "type": "Feature", "properties": { "name": "阿克苏市" }, "geometry": { "type": "Point", "coordinates": [ 80.260329769597746, 41.167358642370914 ] } },
{ "type": "Feature", "properties": { "name": "阿图什市" }, "geometry": { "type": "Point", "coordinates": [ 76.167863871161885, 39.715865745451978 ] } },
{ "type": "Feature", "properties": { "name": "噶尔县" }, "geometry": { "type": "Point", "coordinates": [ 80.089771273934005, 32.504501018455684 ] } },
{ "type": "Feature", "properties": { "name": "康定县" }, "geometry": { "type": "Point", "coordinates": [ 101.958520356934343, 30.052871055509399 ] } },
{ "type": "Feature", "properties": { "name": "马尔康县" }, "geometry": { "type": "Point", "coordinates": [ 102.233827046701109, 31.911367321295884 ] } },
{ "type": "Feature", "properties": { "name": "毕节" }, "geometry": { "type": "Point", "coordinates": [ 105.284099851107442, 27.30835155113401 ] } },
{ "type": "Feature", "properties": { "name": "玉树" }, "geometry": { "type": "Point", "coordinates": [ 97.01519456058071, 33.003602993299666 ] } },
{ "type": "Feature", "properties": { "name": "成县" }, "geometry": { "type": "Point", "coordinates": [ 105.730436716662695, 33.743957514038414 ] } },
{ "type": "Feature", "properties": { "name": "吴忠市" }, "geometry": { "type": "Point", "coordinates": [ 106.19562415480992, 37.986641404755211 ] } },
{ "type": "Feature", "properties": { "name": "台州市" }, "geometry": { "type": "Point", "coordinates": [ 121.447570075276502, 28.672742752150668 ] } },
{ "type": "Feature", "properties": { "name": "滨州市" }, "geometry": { "type": "Point", "coordinates": [ 118.02415664574913, 37.368561235847437 ] } },
{ "type": "Feature", "properties": { "name": "资阳市" }, "geometry": { "type": "Point", "coordinates": [ 104.650278823148199, 30.122996175246048 ] } },
{ "type": "Feature", "properties": { "name": "广州市" }, "geometry": { "type": "Point", "coordinates": [ 113.256327558141408, 23.134803760236537 ] } },
{ "type": "Feature", "properties": { "name": "南宁市" }, "geometry": { "type": "Point", "coordinates": [ 108.312227683591232, 22.806324807651286 ] } },
{ "type": "Feature", "properties": { "name": "海口市" }, "geometry": { "type": "Point", "coordinates": [ 110.339874859767065, 20.033913873947174 ] } },
{ "type": "Feature", "properties": { "name": "贵阳市" }, "geometry": { "type": "Point", "coordinates": [ 106.709239046811405, 26.581033269724951 ] } },
{ "type": "Feature", "properties": { "name": "昆明市" }, "geometry": { "type": "Point", "coordinates": [ 102.710394611586935, 25.046141633879312 ] } },
{ "type": "Feature", "properties": { "name": "福州市" }, "geometry": { "type": "Point", "coordinates": [ 119.317505628147956, 26.036795155785075 ] } },
{ "type": "Feature", "properties": { "name": "台北市" }, "geometry": { "type": "Point", "coordinates": [ 121.51569540741076, 25.050664702279402 ] } },
{ "type": "Feature", "properties": { "name": "拉萨市" }, "geometry": { "type": "Point", "coordinates": [ 91.134264947170635, 29.652661312553139 ] } },
{ "type": "Feature", "properties": { "name": "重庆市" }, "geometry": { "type": "Point", "coordinates": [ 106.445077016023816, 29.590716540828254 ] } },
{ "type": "Feature", "properties": { "name": "成都市" }, "geometry": { "type": "Point", "coordinates": [ 104.078076822993651, 30.65072059728741 ] } },
{ "type": "Feature", "properties": { "name": "长沙市" }, "geometry": { "type": "Point", "coordinates": [ 112.978392890253971, 28.19847554391017 ] } },
{ "type": "Feature", "properties": { "name": "合肥市" }, "geometry": { "type": "Point", "coordinates": [ 117.27682482928428, 31.86479153687954 ] } },
{ "type": "Feature", "properties": { "name": "武汉市" }, "geometry": { "type": "Point", "coordinates": [ 114.274716681591528, 30.585371686028996 ] } },
{ "type": "Feature", "properties": { "name": "南昌市" }, "geometry": { "type": "Point", "coordinates": [ 115.898044816785003, 28.675176225008165 ] } },
{ "type": "Feature", "properties": { "name": "上海市" }, "geometry": { "type": "Point", "coordinates": [ 121.459789418367663, 31.230451740144243 ] } },
{ "type": "Feature", "properties": { "name": "杭州市" }, "geometry": { "type": "Point", "coordinates": [ 120.169038720438365, 30.294423163535487 ] } },
{ "type": "Feature", "properties": { "name": "西安市" }, "geometry": { "type": "Point", "coordinates": [ 108.944400024932136, 34.267003175985401 ] } },
{ "type": "Feature", "properties": { "name": "郑州市" }, "geometry": { "type": "Point", "coordinates": [ 113.641606715021581, 34.758473782705543 ] } },
{ "type": "Feature", "properties": { "name": "南京市" }, "geometry": { "type": "Point", "coordinates": [ 118.76938715683184, 32.052897473130713 ] } },
{ "type": "Feature", "properties": { "name": "西宁市" }, "geometry": { "type": "Point", "coordinates": [ 101.783968635644342, 36.60930358072963 ] } },
{ "type": "Feature", "properties": { "name": "银川市" }, "geometry": { "type": "Point", "coordinates": [ 106.274106915533551, 38.467449893030349 ] } },
{ "type": "Feature", "properties": { "name": "兰州市" }, "geometry": { "type": "Point", "coordinates": [ 103.847216359488016, 36.047467436249228 ] } },
{ "type": "Feature", "properties": { "name": "太原市" }, "geometry": { "type": "Point", "coordinates": [ 112.565113744931821, 37.874209082767372 ] } },
{ "type": "Feature", "properties": { "name": "北京市" }, "geometry": { "type": "Point", "coordinates": [ 116.36838251952112, 39.931907976986984 ] } },
{ "type": "Feature", "properties": { "name": "济南市" }, "geometry": { "type": "Point", "coordinates": [ 117.001869928642961, 36.650553078211381 ] } },
{ "type": "Feature", "properties": { "name": "石家庄市" }, "geometry": { "type": "Point", "coordinates": [ 114.48912601478645, 38.043184928544804 ] } },
{ "type": "Feature", "properties": { "name": "天津市" }, "geometry": { "type": "Point", "coordinates": [ 117.188217258664338, 39.137435635100971 ] } },
{ "type": "Feature", "properties": { "name": "乌鲁木齐市" }, "geometry": { "type": "Point", "coordinates": [ 87.603730609919239, 43.791276734313932 ] } },
{ "type": "Feature", "properties": { "name": "呼和浩特市" }, "geometry": { "type": "Point", "coordinates": [ 111.664433986059507, 40.815992490253493 ] } },
{ "type": "Feature", "properties": { "name": "长春市" }, "geometry": { "type": "Point", "coordinates": [ 125.309955309269881, 43.884932566213806 ] } },
{ "type": "Feature", "properties": { "name": "沈阳市" }, "geometry": { "type": "Point", "coordinates": [ 123.420440955784059, 41.78873303657047 ] } },
{ "type": "Feature", "properties": { "name": "哈尔滨市" }, "geometry": { "type": "Point", "coordinates": [ 126.646158203665635, 45.742863507395654 ] } },
{ "type": "Feature", "properties": { "name": "塔河" }, "geometry": { "type": "Point", "coordinates": [ 124.706520407515825, 52.340967328044513 ] } },
{ "type": "Feature", "properties": { "name": "济源市" }, "geometry": { "type": "Point", "coordinates": [ 112.582944180099929, 35.092844318266032 ] } },
{ "type": "Feature", "properties": { "name": "宜兴市" }, "geometry": { "type": "Point", "coordinates": [ 119.814796031911399, 31.363956685748892 ] } },
{ "type": "Feature", "properties": { "name": "神农架林区" }, "geometry": { "type": "Point", "coordinates": [ 110.677172526940168, 31.754664745591054 ] } },
{ "type": "Feature", "properties": { "name": "天门市" }, "geometry": { "type": "Point", "coordinates": [ 113.164393267087377, 30.656573446172857 ] } },
{ "type": "Feature", "properties": { "name": "仙桃市" }, "geometry": { "type": "Point", "coordinates": [ 113.453108609793318, 30.372082520040667 ] } },
{ "type": "Feature", "properties": { "name": "潜江市" }, "geometry": { "type": "Point", "coordinates": [ 112.89322683571018, 30.421271609020245 ] } },
{ "type": "Feature", "properties": { "name": "防城港市" }, "geometry": { "type": "Point", "coordinates": [ 108.356737417831567, 21.769095275181073 ] } },
{ "type": "Feature", "properties": { "name": "六库" }, "geometry": { "type": "Point", "coordinates": [ 98.661679648424666, 27.74742749509473 ] } }
]
}
