{"type":"FeatureCollection", "features": [
{"type":"Feature","geometry":{"type":"Point","coordinates":[108.91047998325075,34.230191714075175,0,-1.7976931348623157e+308]},"properties":{"OBJECTID":1,"Join_Count":3,"TARGET_FID":1,"åç§°":"西科大社区","POLY_AREA":2969.86472961,"å°å­¦æ":0.0173049242733,"Shape_Leng":2272.85543644,"Shape_Ar_1":171619.631656,"Shape_Le_1":0.022972518329,"Shape_Area":0.0000167902604428,"name":"西科大社区","rate":0.0173049242733,"ORIG_FID":0}},
{"type":"Feature","geometry":{"type":"Point","coordinates":[108.90544345150253,34.23207127579491,0,-1.7976931348623157e+308]},"properties":{"OBJECTID":2,"Join_Count":6,"TARGET_FID":2,"åç§°":"徐家庄城中村","POLY_AREA":100320.453091,"å°å­¦æ":0.954305691704,"Shape_Leng":1864.76094373,"Shape_Ar_1":105124.022588,"Shape_Le_1":0.018823560722,"Shape_Area":0.000010284983546,"name":"徐家庄城中村","rate":0.954305691704,"ORIG_FID":1}},
{"type":"Feature","geometry":{"type":"Point","coordinates":[108.9063527685336,34.23479265254462,0,-1.7976931348623157e+308]},"properties":{"OBJECTID":3,"Join_Count":5,"TARGET_FID":4,"åç§°":"导航家园","POLY_AREA":9760.59487668,"å°å­¦æ":0.321281333233,"Shape_Leng":744.836205511,"Shape_Ar_1":30380.2115687,"Shape_Le_1":0.00745279981626,"Shape_Area":0.0000029723753266,"name":"导航家园","rate":0.321281333233,"ORIG_FID":2}},
{"type":"Feature","geometry":{"type":"Point","coordinates":[108.90507846457078,34.23607864329954,0,-1.7976931348623157e+308]},"properties":{"OBJECTID":4,"Join_Count":9,"TARGET_FID":5,"åç§°":"导航所小区北区","POLY_AREA":3034.92302547,"å°å­¦æ":0.089536058554,"Shape_Leng":997.190171098,"Shape_Ar_1":33896.0981138,"Shape_Le_1":0.00977705768993,"Shape_Area":0.00000331641965253,"name":"导航所小区北区","rate":0.089536058554,"ORIG_FID":3}},
{"type":"Feature","geometry":{"type":"Point","coordinates":[108.90575334424297,34.237943095100725,0,-1.7976931348623157e+308]},"properties":{"OBJECTID":5,"Join_Count":10,"TARGET_FID":6,"åç§°":"南二环西段小区","POLY_AREA":31526.7948627,"å°å­¦æ":0.740761844157,"Shape_Leng":1064.0692952,"Shape_Ar_1":42559.960548,"Shape_Le_1":0.0107495804137,"Shape_Area":0.00000416418553676,"name":"南二环西段小区","rate":0.740761844157,"ORIG_FID":4}},
{"type":"Feature","geometry":{"type":"Point","coordinates":[108.90287024181342,34.233730014285676,0,-1.7976931348623157e+308]},"properties":{"OBJECTID":6,"Join_Count":12,"TARGET_FID":8,"åç§°":"二十所社区","POLY_AREA":100320.453091,"å°å­¦æ":0.99350119942,"Shape_Leng":1719.72378628,"Shape_Ar_1":100976.6804,"Shape_Le_1":0.0171044186148,"Shape_Area":0.00000987932960149,"name":"二十所社区","rate":0.99350119942,"ORIG_FID":5}},
{"type":"Feature","geometry":{"type":"Point","coordinates":[108.90311499043476,34.23705491764943,0,-1.7976931348623157e+308]},"properties":{"OBJECTID":7,"Join_Count":7,"TARGET_FID":11,"åç§°":"瑞欣大厦","POLY_AREA":789.043542582,"å°å­¦æ":0.0866277614806,"Shape_Leng":460.634456116,"Shape_Ar_1":9108.43740039,"Shape_Le_1":0.00446808868444,"Shape_Area":8.91182785484e-7,"name":"瑞欣大厦","rate":0.0866277614806,"ORIG_FID":6}},
{"type":"Feature","geometry":{"type":"Point","coordinates":[108.8998934369992,34.23431955942314,0,-1.7976931348623157e+308]},"properties":{"OBJECTID":8,"Join_Count":1,"TARGET_FID":13,"åç§°":"高科大厦","POLY_AREA":10423.3660362,"å°å­¦æ":1,"Shape_Leng":405.810953552,"Shape_Ar_1":10423.3660362,"Shape_Le_1":0.00402900406563,"Shape_Area":0.00000101980297579,"name":"高科大厦","rate":1,"ORIG_FID":7}},
{"type":"Feature","geometry":{"type":"Point","coordinates":[108.90217706398198,34.23885984367167,0,-1.7976931348623157e+308]},"properties":{"OBJECTID":9,"Join_Count":1,"TARGET_FID":15,"åç§°":"高新银座","POLY_AREA":70.6845782872,"å°å­¦æ":0.0103653064147,"Shape_Leng":330.061903594,"Shape_Ar_1":6819.34285965,"Shape_Le_1":0.0032711897487,"Shape_Area":6.67228757181e-7,"name":"高新银座","rate":0.0103653064147,"ORIG_FID":8}},
{"type":"Feature","geometry":{"type":"Point","coordinates":[108.91271551900985,34.22806233009039,0,-1.7976931348623157e+308]},"properties":{"OBJECTID":10,"Join_Count":2,"TARGET_FID":17,"åç§°":"紫薇小区","POLY_AREA":3678.85807818,"å°å­¦æ":0.242267241557,"Shape_Leng":516.417323027,"Shape_Ar_1":15185.1238927,"Shape_Le_1":0.00508600658186,"Shape_Area":0.00000148559386994,"name":"紫薇小区","rate":0.242267241557,"ORIG_FID":9}},
{"type":"Feature","geometry":{"type":"Point","coordinates":[108.8919753145687,34.238274107308854,0,-1.7976931348623157e+308]},"properties":{"OBJECTID":11,"Join_Count":1,"TARGET_FID":19,"åç§°":"西京医院干部住房","POLY_AREA":2999.30289669,"å°å­¦æ":0.719989657259,"Shape_Leng":256.971502399,"Shape_Ar_1":4165.75830841,"Shape_Le_1":0.00256884281404,"Shape_Area":4.07586138546e-7,"name":"西京医院干部住房","rate":0.719989657259,"ORIG_FID":10}},
{"type":"Feature","geometry":{"type":"Point","coordinates":[108.89279447493077,34.23965142268293,0,-1.7976931348623157e+308]},"properties":{"OBJECTID":12,"Join_Count":1,"TARGET_FID":20,"åç§°":"丹枫国际","POLY_AREA":5183.53581974,"å°å­¦æ":1,"Shape_Leng":288.620478204,"Shape_Ar_1":5183.53581974,"Shape_Le_1":0.00284216611018,"Shape_Area":5.07176389973e-7,"name":"丹枫国际","rate":1,"ORIG_FID":11}},
{"type":"Feature","geometry":{"type":"Point","coordinates":[108.8966041098421,34.24325183307716,0,-1.7976931348623157e+308]},"properties":{"OBJECTID":13,"Join_Count":2,"TARGET_FID":21,"åç§°":"西安海佳","POLY_AREA":3932.37050826,"å°å­¦æ":0.999998598692,"Shape_Leng":282.85979895,"Shape_Ar_1":3932.37601873,"Shape_Le_1":0.00288196045288,"Shape_Area":3.84775472088e-7,"name":"西安海佳","rate":0.999998598692,"ORIG_FID":12}},
{"type":"Feature","geometry":{"type":"Point","coordinates":[108.89550644627239,34.24348806780059,0,-1.7976931348623157e+308]},"properties":{"OBJECTID":14,"Join_Count":2,"TARGET_FID":22,"åç§°":"西安华中地产","POLY_AREA":3932.37050826,"å°å­¦æ":0.438862599002,"Shape_Leng":380.005249955,"Shape_Ar_1":8960.36827291,"Shape_Le_1":0.00379396453609,"Shape_Area":8.76756362568e-7,"name":"西安华中地产","rate":0.438862599002,"ORIG_FID":13}},
{"type":"Feature","geometry":{"type":"Point","coordinates":[108.89858456031286,34.242181926200296,0,-1.7976931348623157e+308]},"properties":{"OBJECTID":15,"Join_Count":1,"TARGET_FID":23,"åç§°":"新世纪大厦","POLY_AREA":4307.7385397,"å°å­¦æ":0.982584962125,"Shape_Leng":266.736342968,"Shape_Ar_1":4384.08759115,"Shape_Le_1":0.00263635831703,"Shape_Area":4.28969999288e-7,"name":"新世纪大厦","rate":0.982584962125,"ORIG_FID":14}},
{"type":"Feature","geometry":{"type":"Point","coordinates":[108.8968153586055,34.233266812838664,0,-1.7976931348623157e+308]},"properties":{"OBJECTID":16,"Join_Count":3,"TARGET_FID":27,"åç§°":"欧锦园","POLY_AREA":3955.70660567,"å°å­¦æ":0.868631943371,"Shape_Leng":267.10283031,"Shape_Ar_1":4553.95019243,"Shape_Le_1":0.00268258580764,"Shape_Area":4.45543316171e-7,"name":"欧锦园","rate":0.868631943371,"ORIG_FID":15}},
{"type":"Feature","geometry":{"type":"Point","coordinates":[108.896061619556,34.233564244463714,0,-1.7976931348623157e+308]},"properties":{"OBJECTID":17,"Join_Count":2,"TARGET_FID":29,"åç§°":"邮政小区","POLY_AREA":3955.70660567,"å°å­¦æ":0.947042641953,"Shape_Leng":264.344119196,"Shape_Ar_1":4176.90442905,"Shape_Le_1":0.00266011810039,"Shape_Area":4.08655689404e-7,"name":"邮政小区","rate":0.947042641953,"ORIG_FID":16}},
{"type":"Feature","geometry":{"type":"Point","coordinates":[108.89535755947972,34.2326894173505,0,-1.7976931348623157e+308]},"properties":{"OBJECTID":18,"Join_Count":1,"TARGET_FID":30,"åç§°":"枫林苑-北区","POLY_AREA":325.792441779,"å°å­¦æ":0.00834853742058,"Shape_Leng":791.136954639,"Shape_Ar_1":39023.8942903,"Shape_Le_1":0.00796801874663,"Shape_Area":0.00000381793961303,"name":"枫林苑-北区","rate":0.00834853742058,"ORIG_FID":17}},
{"type":"Feature","geometry":{"type":"Point","coordinates":[108.89686631630883,34.230545295655084,0,-1.7976931348623157e+308]},"properties":{"OBJECTID":19,"Join_Count":1,"TARGET_FID":31,"åç§°":"一品美道","POLY_AREA":1845.03382821,"å°å­¦æ":0.0999905782566,"Shape_Leng":576.959653876,"Shape_Ar_1":18452.0767894,"Shape_Le_1":0.00584349365473,"Shape_Area":0.00000180523346254,"name":"一品美道","rate":0.0999905782566,"ORIG_FID":18}},
{"type":"Feature","geometry":{"type":"Point","coordinates":[108.89692336504625,34.23131936285687,0,-1.7976931348623157e+308]},"properties":{"OBJECTID":20,"Join_Count":2,"TARGET_FID":32,"åç§°":"花园印象","POLY_AREA":1069.11328795,"å°å­¦æ":0.149882585784,"Shape_Leng":358.172565927,"Shape_Ar_1":7133.00536118,"Shape_Le_1":0.00362615308849,"Shape_Area":6.97853616726e-7,"name":"花园印象","rate":0.149882585784,"ORIG_FID":19}},
{"type":"Feature","geometry":{"type":"Point","coordinates":[108.89726179117419,34.231824362695214,0,-1.7976931348623157e+308]},"properties":{"OBJECTID":21,"Join_Count":2,"TARGET_FID":33,"åç§°":"中国电信家属","POLY_AREA":1069.11328795,"å°å­¦æ":0.130897721273,"Shape_Leng":375.641477289,"Shape_Ar_1":8167.546979,"Shape_Le_1":0.00379143119,"Shape_Area":7.99072950731e-7,"name":"中国电信家属","rate":0.130897721273,"ORIG_FID":20}},
{"type":"Feature","geometry":{"type":"Point","coordinates":[108.89234614629832,34.22806001049097,0,-1.7976931348623157e+308]},"properties":{"OBJECTID":22,"Join_Count":1,"TARGET_FID":35,"åç§°":"枫林苑-南区","POLY_AREA":5720.45409832,"å°å­¦æ":0.115097191729,"Shape_Leng":890.598874761,"Shape_Ar_1":49701.074478,"Shape_Le_1":0.00895261408216,"Shape_Area":0.00000486227466868,"name":"枫林苑-南区","rate":0.115097191729,"ORIG_FID":21}},
{"type":"Feature","geometry":{"type":"Point","coordinates":[108.89864753198421,34.230272602159424,0,-1.7976931348623157e+308]},"properties":{"OBJECTID":23,"Join_Count":4,"TARGET_FID":37,"åç§°":"尚中心","POLY_AREA":8542.82880216,"å°å­¦æ":0.826780717737,"Shape_Leng":496.953198402,"Shape_Ar_1":10332.6415564,"Shape_Le_1":0.0048013743375,"Shape_Area":0.0000010108817177,"name":"尚中心","rate":0.826780717737,"ORIG_FID":22}},
{"type":"Feature","geometry":{"type":"Point","coordinates":[108.90134753445082,34.23057010450895,0,-1.7976931348623157e+308]},"properties":{"OBJECTID":24,"Join_Count":5,"TARGET_FID":38,"åç§°":"雍信花园","POLY_AREA":3695.57972505,"å°å­¦æ":0.999998584608,"Shape_Leng":243.217311165,"Shape_Ar_1":3695.58495575,"Shape_Le_1":0.00242686075314,"Shape_Area":3.61554105502e-7,"name":"雍信花园","rate":0.999998584608,"ORIG_FID":23}},
{"type":"Feature","geometry":{"type":"Point","coordinates":[108.90165963414567,34.23146243680295,0,-1.7976931348623157e+308]},"properties":{"OBJECTID":25,"Join_Count":3,"TARGET_FID":40,"åç§°":"合力紫郡","POLY_AREA":2482.44053016,"å°å­¦æ":0.635553494949,"Shape_Leng":250.073682062,"Shape_Ar_1":3905.95056104,"Shape_Le_1":0.00249437373575,"Shape_Area":3.82138758338e-7,"name":"合力紫郡","rate":0.635553494949,"ORIG_FID":24}},
{"type":"Feature","geometry":{"type":"Point","coordinates":[108.90025179387303,34.23104923792658,0,-1.7976931348623157e+308]},"properties":{"OBJECTID":26,"Join_Count":7,"TARGET_FID":41,"åç§°":"人民银行西安","POLY_AREA":8542.82880216,"å°å­¦æ":0.487901996963,"Shape_Leng":635.575931595,"Shape_Ar_1":17509.3130492,"Shape_Le_1":0.00640755213856,"Shape_Area":0.00000171302033555,"name":"人民银行西安","rate":0.487901996963,"ORIG_FID":25}},
{"type":"Feature","geometry":{"type":"Point","coordinates":[108.90776478389441,34.223922776384335,0,-1.7976931348623157e+308]},"properties":{"OBJECTID":27,"Join_Count":5,"TARGET_FID":56,"åç§°":"科创路幼儿园","POLY_AREA":3017.98290955,"å°å­¦æ":0.999999249986,"Shape_Leng":347.550429655,"Shape_Ar_1":3017.98517308,"Shape_Le_1":0.00364587233315,"Shape_Area":2.9524017947e-7,"name":"科创路幼儿园","rate":0.999999249986,"ORIG_FID":26}},
{"type":"Feature","geometry":{"type":"Point","coordinates":[108.90934839053376,34.22362745895555,0,-1.7976931348623157e+308]},"properties":{"OBJECTID":28,"Join_Count":3,"TARGET_FID":57,"åç§°":"嘉天国际","POLY_AREA":3017.98290955,"å°å­¦æ":0.270106183828,"Shape_Leng":479.639263003,"Shape_Ar_1":11173.3203097,"Shape_Le_1":0.00484702149607,"Shape_Area":0.00000109304819028,"name":"嘉天国际","rate":0.270106183828,"ORIG_FID":27}},
{"type":"Feature","geometry":{"type":"Point","coordinates":[108.90810961918793,34.224259205048746,0,-1.7976931348623157e+308]},"properties":{"OBJECTID":29,"Join_Count":4,"TARGET_FID":58,"åç§°":"高新品阁","POLY_AREA":3017.98290955,"å°å­¦æ":0.793441242523,"Shape_Leng":249.067654338,"Shape_Ar_1":3803.66276393,"Shape_Le_1":0.00251580222828,"Shape_Area":3.72102706017e-7,"name":"高新品阁","rate":0.793441242523,"ORIG_FID":28}},
{"type":"Feature","geometry":{"type":"Point","coordinates":[108.90737470961706,34.22446134652054,0,-1.7976931348623157e+308]},"properties":{"OBJECTID":30,"Join_Count":4,"TARGET_FID":59,"åç§°":"沙井村外围","POLY_AREA":3017.98290955,"å°å­¦æ":0.435684733299,"Shape_Leng":354.221957652,"Shape_Ar_1":6926.98797752,"Shape_Le_1":0.00347118444706,"Shape_Area":6.77649966467e-7,"name":"沙井村外围","rate":0.435684733299,"ORIG_FID":29}},
{"type":"Feature","geometry":{"type":"Point","coordinates":[108.90644083373624,34.221203858976175,0,-1.7976931348623157e+308]},"properties":{"OBJECTID":31,"Join_Count":2,"TARGET_FID":60,"åç§°":"七七一研家院","POLY_AREA":2645.73868785,"å°å­¦æ":0.139511096537,"Shape_Leng":710.283761537,"Shape_Ar_1":18964.3602088,"Shape_Le_1":0.00706838906871,"Shape_Area":0.00000185516729098,"name":"七七一研家院","rate":0.139511096537,"ORIG_FID":30}},
{"type":"Feature","geometry":{"type":"Point","coordinates":[108.90453323601493,34.22356975067281,0,-1.7976931348623157e+308]},"properties":{"OBJECTID":32,"Join_Count":4,"TARGET_FID":61,"åç§°":"沙井村","POLY_AREA":3017.98290955,"å°å­¦æ":0.0141490663741,"Shape_Leng":1919.17211247,"Shape_Ar_1":213299.084884,"Shape_Le_1":0.0189759910418,"Shape_Area":0.0000208662719724,"name":"沙井村","rate":0.0141490663741,"ORIG_FID":31}},
{"type":"Feature","geometry":{"type":"Point","coordinates":[108.90651475634556,34.22726900652129,0,-1.7976931348623157e+308]},"properties":{"OBJECTID":33,"Join_Count":3,"TARGET_FID":62,"åç§°":"培华学院东区","POLY_AREA":14695.2567194,"å°å­¦æ":0.324168013801,"Shape_Leng":929.782617242,"Shape_Ar_1":45332.2230874,"Shape_Le_1":0.00931827801679,"Shape_Area":0.00000443487793446,"name":"培华学院东区","rate":0.324168013801,"ORIG_FID":32}},
{"type":"Feature","geometry":{"type":"Point","coordinates":[108.9112771491653,34.22575009931353,0,-1.7976931348623157e+308]},"properties":{"OBJECTID":34,"Join_Count":1,"TARGET_FID":67,"åç§°":"交警支队社区","POLY_AREA":5265.79885291,"å°å­¦æ":0.564685839898,"Shape_Leng":395.405129403,"Shape_Ar_1":9325.18310335,"Shape_Le_1":0.00390614756829,"Shape_Area":9.12276593447e-7,"name":"交警支队社区","rate":0.564685839898,"ORIG_FID":33}},
{"type":"Feature","geometry":{"type":"Point","coordinates":[108.9104797196873,34.22753456670474,0,-1.7976931348623157e+308]},"properties":{"OBJECTID":35,"Join_Count":1,"TARGET_FID":68,"åç§°":"凯丽大厦","POLY_AREA":172.384599362,"å°å­¦æ":0.0308840784683,"Shape_Leng":303.093007751,"Shape_Ar_1":5581.66563198,"Shape_Le_1":0.00306706879678,"Shape_Area":5.46062792062e-7,"name":"凯丽大厦","rate":0.0308840784683,"ORIG_FID":34}},
{"type":"Feature","geometry":{"type":"Point","coordinates":[108.90495891208664,34.23005253466466,0,-1.7976931348623157e+308]},"properties":{"OBJECTID":36,"Join_Count":5,"TARGET_FID":69,"åç§°":"新科大厦","POLY_AREA":4125.47995994,"å°å­¦æ":1,"Shape_Leng":266.649705657,"Shape_Ar_1":4125.47995994,"Shape_Le_1":0.00269284097245,"Shape_Area":4.03611074925e-7,"name":"新科大厦","rate":1,"ORIG_FID":35}},
{"type":"Feature","geometry":{"type":"Point","coordinates":[108.90375035966366,34.22948647443519,0,-1.7976931348623157e+308]},"properties":{"OBJECTID":37,"Join_Count":4,"TARGET_FID":71,"åç§°":"税务局家属院","POLY_AREA":4125.47995994,"å°å­¦æ":0.399099859529,"Shape_Leng":457.684872453,"Shape_Ar_1":10336.9616938,"Shape_Le_1":0.00445352005717,"Shape_Area":0.00000101129567479,"name":"税务局家属院","rate":0.399099859529,"ORIG_FID":36}},
{"type":"Feature","geometry":{"type":"Point","coordinates":[108.90545039745975,34.22921973509512,0,-1.7976931348623157e+308]},"properties":{"OBJECTID":38,"Join_Count":3,"TARGET_FID":72,"åç§°":"水电十五局家","POLY_AREA":4125.47995994,"å°å­¦æ":0.66305773578,"Shape_Leng":322.336454774,"Shape_Ar_1":6221.90155897,"Shape_Le_1":0.00324990707998,"Shape_Area":6.08704948717e-7,"name":"水电十五局家","rate":0.66305773578,"ORIG_FID":37}},
{"type":"Feature","geometry":{"type":"Point","coordinates":[108.90465659026157,34.22893076162625,0,-1.7976931348623157e+308]},"properties":{"OBJECTID":39,"Join_Count":5,"TARGET_FID":73,"åç§°":"新科花园","POLY_AREA":4125.47995994,"å°å­¦æ":0.191838614883,"Shape_Leng":708.491062469,"Shape_Ar_1":21504.9507236,"Shape_Le_1":0.00706872256842,"Shape_Area":0.0000021038842476,"name":"新科花园","rate":0.191838614883,"ORIG_FID":38}},
{"type":"Feature","geometry":{"type":"Point","coordinates":[108.9027183410072,34.22953119453575,0,-1.7976931348623157e+308]},"properties":{"OBJECTID":40,"Join_Count":5,"TARGET_FID":74,"åç§°":"博文园","POLY_AREA":15354.6163651,"å°å­¦æ":0.999339610671,"Shape_Leng":499.625585495,"Shape_Ar_1":15364.7630907,"Shape_Le_1":0.00494406081219,"Shape_Area":0.00000150317930943,"name":"博文园","rate":0.999339610671,"ORIG_FID":39}},
{"type":"Feature","geometry":{"type":"Point","coordinates":[108.9003785383122,34.22934262263459,0,-1.7976931348623157e+308]},"properties":{"OBJECTID":41,"Join_Count":6,"TARGET_FID":76,"åç§°":"蒋家寨小区","POLY_AREA":8542.82880216,"å°å­¦æ":0.211395880626,"Shape_Leng":998.554166481,"Shape_Ar_1":40411.5197366,"Shape_Le_1":0.010008546589,"Shape_Area":0.00000395356997118,"name":"蒋家寨小区","rate":0.211395880626,"ORIG_FID":40}},
{"type":"Feature","geometry":{"type":"Point","coordinates":[108.89984624712733,34.23017841690392,0,-1.7976931348623157e+308]},"properties":{"OBJECTID":42,"Join_Count":4,"TARGET_FID":77,"åç§°":"皇家花园","POLY_AREA":8542.82880216,"å°å­¦æ":0.529646948712,"Shape_Leng":521.351669771,"Shape_Ar_1":16129.2891858,"Shape_Le_1":0.00523951355146,"Shape_Area":0.00000157798204467,"name":"皇家花园","rate":0.529646948712,"ORIG_FID":41}},
{"type":"Feature","geometry":{"type":"Point","coordinates":[108.90501654179896,34.22657400224989,0,-1.7976931348623157e+308]},"properties":{"OBJECTID":43,"Join_Count":2,"TARGET_FID":78,"åç§°":"摩登BO BO","POLY_AREA":11.0779650063,"å°å­¦æ":0.00316742026919,"Shape_Leng":234.399925209,"Shape_Ar_1":3497.47241125,"Shape_Le_1":0.00233117980686,"Shape_Area":3.42156693636e-7,"name":"摩登BO BO","rate":0.00316742026919,"ORIG_FID":42}},
{"type":"Feature","geometry":{"type":"Point","coordinates":[108.90696992649664,34.225866458460075,0,-1.7976931348623157e+308]},"properties":{"OBJECTID":44,"Join_Count":3,"TARGET_FID":79,"åç§°":"融鑫园小区","POLY_AREA":14695.2567194,"å°å­¦æ":0.572373198978,"Shape_Leng":852.038757552,"Shape_Ar_1":25674.2571903,"Shape_Le_1":0.00864610223486,"Shape_Area":0.0000025117073045,"name":"融鑫园小区","rate":0.572373198978,"ORIG_FID":43}},
{"type":"Feature","geometry":{"type":"Point","coordinates":[108.90745251353556,34.22847235282622,0,-1.7976931348623157e+308]},"properties":{"OBJECTID":45,"Join_Count":1,"TARGET_FID":80,"åç§°":"太白花园","POLY_AREA":573.542002549,"å°å­¦æ":0.0188231194566,"Shape_Leng":742.0000419,"Shape_Ar_1":30470.0824893,"Shape_Le_1":0.00757918013537,"Shape_Area":0.00000298095133142,"name":"太白花园","rate":0.0188231194566,"ORIG_FID":44}},
{"type":"Feature","geometry":{"type":"Point","coordinates":[108.90891386755044,34.22743502389142,0,-1.7976931348623157e+308]},"properties":{"OBJECTID":46,"Join_Count":2,"TARGET_FID":81,"åç§°":"名园新居","POLY_AREA":4425.86894239,"å°å­¦æ":0.374187706775,"Shape_Leng":512.687432253,"Shape_Ar_1":11827.9378565,"Shape_Le_1":0.00515986838754,"Shape_Area":0.00000115714104953,"name":"名园新居","rate":0.374187706775,"ORIG_FID":45}},
{"type":"Feature","geometry":{"type":"Point","coordinates":[108.90204220795042,34.230464625998614,0,-1.7976931348623157e+308]},"properties":{"OBJECTID":47,"Join_Count":4,"TARGET_FID":83,"åç§°":"秦锦苑","POLY_AREA":3695.57972505,"å°å­¦æ":0.59987453175,"Shape_Leng":323.162483636,"Shape_Ar_1":6160.58780537,"Shape_Le_1":0.00318158065461,"Shape_Area":6.02715001345e-7,"name":"秦锦苑","rate":0.59987453175,"ORIG_FID":46}},
{"type":"Feature","geometry":{"type":"Point","coordinates":[108.87043963335823,34.22272942134276,0,-1.7976931348623157e+308]},"properties":{"OBJECTID":48,"Join_Count":3,"TARGET_FID":93,"åç§°":"城市风景夏日景色","POLY_AREA":12142.987952,"å°å­¦æ":0.163106228463,"Shape_Leng":1225.16434486,"Shape_Ar_1":74448.3399956,"Shape_Le_1":0.0122933522845,"Shape_Area":0.00000728274052446,"name":"城市风景夏日景色","rate":0.163106228463,"ORIG_FID":47}},
{"type":"Feature","geometry":{"type":"Point","coordinates":[108.87928980172236,34.219974592850555,0,-1.7976931348623157e+308]},"properties":{"OBJECTID":49,"Join_Count":3,"TARGET_FID":94,"åç§°":"南窑头新村","POLY_AREA":128579.994118,"å°å­¦æ":0.978169467389,"Shape_Leng":1433.20089895,"Shape_Ar_1":131449.609096,"Shape_Le_1":0.0141768038171,"Shape_Area":0.0000128584025716,"name":"南窑头新村","rate":0.978169467389,"ORIG_FID":48}},
{"type":"Feature","geometry":{"type":"Point","coordinates":[108.87459423625802,34.21433393682005,0,-1.7976931348623157e+308]},"properties":{"OBJECTID":50,"Join_Count":2,"TARGET_FID":95,"åç§°":"高科房产","POLY_AREA":30156.4466926,"å°å­¦æ":0.446285318536,"Shape_Leng":1229.28431593,"Shape_Ar_1":67572.1235724,"Shape_Le_1":0.0124956401792,"Shape_Area":0.00000660947830991,"name":"高科房产","rate":0.446285318536,"ORIG_FID":49}},
{"type":"Feature","geometry":{"type":"Point","coordinates":[108.87495222197937,34.220000520278305,0,-1.7976931348623157e+308]},"properties":{"OBJECTID":51,"Join_Count":3,"TARGET_FID":97,"åç§°":"南窑头新村","POLY_AREA":32097.9798565,"å°å­¦æ":0.226172480088,"Shape_Leng":1516.43822305,"Shape_Ar_1":141918.149565,"Shape_Le_1":0.0150965845095,"Shape_Area":0.000013882345566,"name":"南窑头新村","rate":0.226172480088,"ORIG_FID":50}},
{"type":"Feature","geometry":{"type":"Point","coordinates":[108.87046599805826,34.21650962621587,0,-1.7976931348623157e+308]},"properties":{"OBJECTID":52,"Join_Count":2,"TARGET_FID":98,"åç§°":"高科房产","POLY_AREA":27879.7694413,"å°å­¦æ":0.876443296405,"Shape_Leng":729.845432413,"Shape_Ar_1":31810.1234337,"Shape_Le_1":0.00740870390892,"Shape_Area":0.00000311150817201,"name":"高科房产","rate":0.876443296405,"ORIG_FID":51}},
{"type":"Feature","geometry":{"type":"Point","coordinates":[108.87044436630579,34.21484633595194,0,-1.7976931348623157e+308]},"properties":{"OBJECTID":53,"Join_Count":2,"TARGET_FID":99,"åç§°":"万科","POLY_AREA":33373.6520767,"å°å­¦æ":0.921533961894,"Shape_Leng":879.666485288,"Shape_Ar_1":36215.3251608,"Shape_Le_1":0.00868014665558,"Shape_Area":0.00000354234355173,"name":"万科","rate":0.921533961894,"ORIG_FID":52}},
{"type":"Feature","geometry":{"type":"Point","coordinates":[108.87303207038791,34.21151498110864,0,-1.7976931348623157e+308]},"properties":{"OBJECTID":54,"Join_Count":1,"TARGET_FID":100,"åç§°":"天地源","POLY_AREA":28871.8274508,"å°å­¦æ":0.124248944403,"Shape_Leng":2128.87841038,"Shape_Ar_1":232370.806767,"Shape_Le_1":0.0216302823235,"Shape_Area":0.0000227281081214,"name":"天地源","rate":0.124248944403,"ORIG_FID":53}},
{"type":"Feature","geometry":{"type":"Point","coordinates":[108.87120607395116,34.20809588755457,0,-1.7976931348623157e+308]},"properties":{"OBJECTID":55,"Join_Count":1,"TARGET_FID":101,"åç§°":"万科","POLY_AREA":6458.00879178,"å°å­¦æ":0.104684565485,"Shape_Leng":965.227251971,"Shape_Ar_1":61690.171439,"Shape_Le_1":0.00951707717173,"Shape_Area":0.00000603365403498,"name":"万科","rate":0.104684565485,"ORIG_FID":54}},
{"type":"Feature","geometry":{"type":"Point","coordinates":[108.86896828901948,34.236578227053364,0,-1.7976931348623157e+308]},"properties":{"OBJECTID":56,"Join_Count":3,"TARGET_FID":107,"åç§°":"都市印象小区","POLY_AREA":54590.9201268,"å°å­¦æ":0.746007560522,"Shape_Leng":1379.43467424,"Shape_Ar_1":73177.4354788,"Shape_Le_1":0.0131605827975,"Shape_Area":0.00000715953966243,"name":"都市印象小区","rate":0.746007560522,"ORIG_FID":55}},
{"type":"Feature","geometry":{"type":"Point","coordinates":[108.87082351892832,34.23824496546775,0,-1.7976931348623157e+308]},"properties":{"OBJECTID":57,"Join_Count":4,"TARGET_FID":108,"åç§°":"唐南香榭小区","POLY_AREA":10297.6295123,"å°å­¦æ":0.690958797951,"Shape_Leng":489.367265456,"Shape_Ar_1":14903.3915522,"Shape_Le_1":0.00483543829413,"Shape_Area":0.00000145815052803,"name":"唐南香榭小区","rate":0.690958797951,"ORIG_FID":56}},
{"type":"Feature","geometry":{"type":"Point","coordinates":[108.87195780460726,34.238157640873965,0,-1.7976931348623157e+308]},"properties":{"OBJECTID":58,"Join_Count":3,"TARGET_FID":109,"åç§°":"米罗蓝山小区","POLY_AREA":10297.6295123,"å°å­¦æ":0.778650919276,"Shape_Leng":458.782149938,"Shape_Ar_1":13224.9628908,"Shape_Le_1":0.00447503107643,"Shape_Area":0.00000129393265667,"name":"米罗蓝山小区","rate":0.778650919276,"ORIG_FID":57}},
{"type":"Feature","geometry":{"type":"Point","coordinates":[108.87119805411582,34.23585840914242,0,-1.7976931348623157e+308]},"properties":{"OBJECTID":59,"Join_Count":5,"TARGET_FID":111,"åç§°":"西辛庄村","POLY_AREA":54590.9201268,"å°å­¦æ":0.671350451335,"Shape_Leng":1276.34694353,"Shape_Ar_1":81315.0866559,"Shape_Le_1":0.0125219412742,"Shape_Area":0.00000795567323539,"name":"西辛庄村","rate":0.671350451335,"ORIG_FID":58}},
{"type":"Feature","geometry":{"type":"Point","coordinates":[108.87359867908594,34.23859379407398,0,-1.7976931348623157e+308]},"properties":{"OBJECTID":60,"Join_Count":5,"TARGET_FID":112,"åç§°":"梧桐朗座","POLY_AREA":5183.20632461,"å°å­¦æ":0.999974212677,"Shape_Leng":361.676071364,"Shape_Ar_1":5183.33998907,"Shape_Le_1":0.00375509918613,"Shape_Area":5.07142059856e-7,"name":"梧桐朗座","rate":0.999974212677,"ORIG_FID":59}},
{"type":"Feature","geometry":{"type":"Point","coordinates":[108.8764219308353,34.23609293254539,0,-1.7976931348623157e+308]},"properties":{"OBJECTID":61,"Join_Count":2,"TARGET_FID":114,"åç§°":"高科新花园","POLY_AREA":42577.7660172,"å°å­¦æ":0.999703641505,"Shape_Leng":998.864199006,"Shape_Ar_1":42590.3880405,"Shape_Le_1":0.0094122634669,"Shape_Area":0.00000416696612179,"name":"高科新花园","rate":0.999703641505,"ORIG_FID":60}},
{"type":"Feature","geometry":{"type":"Point","coordinates":[108.87325421529931,34.23556919688802,0,-1.7976931348623157e+308]},"properties":{"OBJECTID":62,"Join_Count":2,"TARGET_FID":115,"åç§°":"东馨花园","POLY_AREA":4256.52474448,"å°å­¦æ":0.999999750579,"Shape_Leng":331.933807605,"Shape_Ar_1":4256.52580615,"Shape_Le_1":0.00331726810463,"Shape_Area":4.1644742861e-7,"name":"东馨花园","rate":0.999999750579,"ORIG_FID":61}},
{"type":"Feature","geometry":{"type":"Point","coordinates":[108.880149547,34.23628760844529,0,-1.7976931348623157e+308]},"properties":{"OBJECTID":63,"Join_Count":2,"TARGET_FID":116,"åç§°":"枫叶新都市","POLY_AREA":32770.158308,"å°å­¦æ":0.162806599177,"Shape_Leng":1974.45927292,"Shape_Ar_1":201282.739605,"Shape_Le_1":0.0197771004384,"Shape_Area":0.0000196932882417,"name":"枫叶新都市","rate":0.162806599177,"ORIG_FID":62}},
{"type":"Feature","geometry":{"type":"Point","coordinates":[108.87145631332515,34.230540207606786,0,-1.7976931348623157e+308]},"properties":{"OBJECTID":64,"Join_Count":1,"TARGET_FID":118,"åç§°":"五米魔方","POLY_AREA":8259.49267068,"å°å­¦æ":0.550964882308,"Shape_Leng":543.117766313,"Shape_Ar_1":14990.9602879,"Shape_Le_1":0.00548421548221,"Shape_Area":0.00000146658767145,"name":"五米魔方","rate":0.550964882308,"ORIG_FID":63}},
{"type":"Feature","geometry":{"type":"Point","coordinates":[108.87452470363165,34.23655880288113,0,-1.7976931348623157e+308]},"properties":{"OBJECTID":65,"Join_Count":7,"TARGET_FID":120,"åç§°":"东馨花园","POLY_AREA":5183.20632461,"å°å­¦æ":0.0479833664491,"Shape_Leng":1544.58524393,"Shape_Ar_1":108020.897827,"Shape_Le_1":0.015101638176,"Shape_Area":0.0000105686109448,"name":"东馨花园","rate":0.0479833664491,"ORIG_FID":64}},
{"type":"Feature","geometry":{"type":"Point","coordinates":[108.89024608586695,34.22903551118941,0,-1.7976931348623157e+308]},"properties":{"OBJECTID":66,"Join_Count":2,"TARGET_FID":130,"åç§°":"庆安集团住宅区","POLY_AREA":3875.23665827,"å°å­¦æ":0.123468759932,"Shape_Leng":688.680248819,"Shape_Ar_1":31386.3738519,"Shape_Le_1":0.00680720413425,"Shape_Area":0.00000307057280416,"name":"庆安集团住宅区","rate":0.123468759932,"ORIG_FID":65}},
{"type":"Feature","geometry":{"type":"Point","coordinates":[108.88896033390549,34.228129354774964,0,-1.7976931348623157e+308]},"properties":{"OBJECTID":67,"Join_Count":2,"TARGET_FID":131,"åç§°":"枫叶苑西区","POLY_AREA":3875.23665827,"å°å­¦æ":0.1247977307,"Shape_Leng":765.005492119,"Shape_Ar_1":31052.1404237,"Shape_Le_1":0.0077336650805,"Shape_Area":0.00000303783998223,"name":"枫叶苑西区","rate":0.1247977307,"ORIG_FID":66}},
{"type":"Feature","geometry":{"type":"Point","coordinates":[108.91369384766016,34.21265471081809,0,-1.7976931348623157e+308]},"properties":{"OBJECTID":68,"Join_Count":5,"TARGET_FID":133,"åç§°":"陕西华山半导体材料厂生活区","POLY_AREA":22863.6664708,"å°å­¦æ":0.757454047149,"Shape_Leng":715.063991087,"Shape_Ar_1":30184.8891783,"Shape_Le_1":0.00710517021154,"Shape_Area":0.00000295252013633,"name":"陕西华山半导体材料厂生活区","rate":0.757454047149,"ORIG_FID":67}},
{"type":"Feature","geometry":{"type":"Point","coordinates":[108.90038918024949,34.207546152989806,0,-1.7976931348623157e+308]},"properties":{"OBJECTID":69,"Join_Count":6,"TARGET_FID":134,"åç§°":"绿城高新诚园","POLY_AREA":22342.6194859,"å°å­¦æ":0.409997144557,"Shape_Leng":1192.69902191,"Shape_Ar_1":54494.5733952,"Shape_Le_1":0.0123420934714,"Shape_Area":0.00000533005088791,"name":"绿城高新诚园","rate":0.409997144557,"ORIG_FID":68}},
{"type":"Feature","geometry":{"type":"Point","coordinates":[108.90100688498275,34.20913012512829,0,-1.7976931348623157e+308]},"properties":{"OBJECTID":70,"Join_Count":6,"TARGET_FID":136,"åç§°":"兰乔圣菲南区","POLY_AREA":22342.6194859,"å°å­¦æ":0.566675749,"Shape_Leng":789.489567169,"Shape_Ar_1":39427.5201035,"Shape_Le_1":0.00798548738138,"Shape_Area":0.00000385638788973,"name":"兰乔圣菲南区","rate":0.566675749,"ORIG_FID":69}},
{"type":"Feature","geometry":{"type":"Point","coordinates":[108.90515761118868,34.214240536503134,0,-1.7976931348623157e+308]},"properties":{"OBJECTID":71,"Join_Count":2,"TARGET_FID":137,"åç§°":"荣禾 城市理想","POLY_AREA":19701.1239462,"å°å­¦æ":0.648855046749,"Shape_Leng":762.634150854,"Shape_Ar_1":30362.9046963,"Shape_Le_1":0.00776381068054,"Shape_Area":0.0000029699768832,"name":"荣禾 城市理想","rate":0.648855046749,"ORIG_FID":70}},
{"type":"Feature","geometry":{"type":"Point","coordinates":[108.90682300233007,34.216083867560265,0,-1.7976931348623157e+308]},"properties":{"OBJECTID":72,"Join_Count":2,"TARGET_FID":138,"åç§°":"西部电子社区","POLY_AREA":19701.1239462,"å°å­¦æ":0.330660423912,"Shape_Leng":1053.67383131,"Shape_Ar_1":59581.136784,"Shape_Le_1":0.0103904824677,"Shape_Area":0.00000582810080259,"name":"西部电子社区","rate":0.330660423912,"ORIG_FID":71}},
{"type":"Feature","geometry":{"type":"Point","coordinates":[108.91295903533984,34.21426764907503,0,-1.7976931348623157e+308]},"properties":{"OBJECTID":73,"Join_Count":1,"TARGET_FID":139,"åç§°":"210所-生活区三区","POLY_AREA":9657.19391804,"å°å­¦æ":0.9998818852,"Shape_Leng":399.454732401,"Shape_Ar_1":9658.33471031,"Shape_Le_1":0.00390516848387,"Shape_Area":9.44743490902e-7,"name":"210所-生活区三区","rate":0.9998818852,"ORIG_FID":72}},
{"type":"Feature","geometry":{"type":"Point","coordinates":[108.91174558165488,34.21244955610849,0,-1.7976931348623157e+308]},"properties":{"OBJECTID":74,"Join_Count":2,"TARGET_FID":142,"åç§°":"中国飞机强度研究所生活区","POLY_AREA":22863.6664708,"å°å­¦æ":0.637893175295,"Shape_Leng":846.106031547,"Shape_Ar_1":35842.4691724,"Shape_Le_1":0.00849150533647,"Shape_Area":0.0000035059045418,"name":"中国飞机强度研究所生活区","rate":0.637893175295,"ORIG_FID":73}},
{"type":"Feature","geometry":{"type":"Point","coordinates":[108.91114677419645,34.210928845405626,0,-1.7976931348623157e+308]},"properties":{"OBJECTID":75,"Join_Count":2,"TARGET_FID":146,"åç§°":"西京社区北区","POLY_AREA":22863.6664708,"å°å­¦æ":0.270078417754,"Shape_Leng":1566.13448817,"Shape_Ar_1":84655.6591267,"Shape_Le_1":0.016293345472,"Shape_Area":0.000008280382607,"name":"西京社区北区","rate":0.270078417754,"ORIG_FID":74}},
{"type":"Feature","geometry":{"type":"Point","coordinates":[108.90512181728256,34.20840051881186,0,-1.7976931348623157e+308]},"properties":{"OBJECTID":76,"Join_Count":2,"TARGET_FID":147,"åç§°":"西京电气总公司","POLY_AREA":38639.9373222,"å°å­¦æ":0.229358533602,"Shape_Leng":1678.18683858,"Shape_Ar_1":168469.586527,"Shape_Le_1":0.0170395924437,"Shape_Area":0.0000164778372445,"name":"西京电气总公司","rate":0.229358533602,"ORIG_FID":75}},
{"type":"Feature","geometry":{"type":"Point","coordinates":[108.90134505800243,34.21020352095693,0,-1.7976931348623157e+308]},"properties":{"OBJECTID":77,"Join_Count":1,"TARGET_FID":148,"åç§°":"兰乔圣菲北区","POLY_AREA":7130.99667145,"å°å­¦æ":1,"Shape_Leng":448.261350522,"Shape_Ar_1":7130.99667145,"Shape_Le_1":0.00473126885878,"Shape_Area":6.97492109935e-7,"name":"兰乔圣菲北区","rate":1,"ORIG_FID":76}},
{"type":"Feature","geometry":{"type":"Point","coordinates":[108.92348103349725,34.21076208817801,0,-1.7976931348623157e+308]},"properties":{"OBJECTID":78,"Join_Count":2,"TARGET_FID":152,"åç§°":"雁塔区教育局46中学家属院","POLY_AREA":1064.6214,"å°å­¦æ":0.403356341747,"Shape_Leng":261.002866019,"Shape_Ar_1":2639.40662341,"Shape_Le_1":0.0024433276896,"Shape_Area":2.58169152248e-7,"name":"雁塔区教育局46中学家属院","rate":0.403356341747,"ORIG_FID":77}},
{"type":"Feature","geometry":{"type":"Point","coordinates":[108.91697730459175,34.216212614852324,0,-1.7976931348623157e+308]},"properties":{"OBJECTID":79,"Join_Count":3,"TARGET_FID":155,"åç§°":"中航工业自控所生活2区","POLY_AREA":1041.70750782,"å°å­¦æ":0.374183802988,"Shape_Leng":253.064424153,"Shape_Ar_1":2783.94601665,"Shape_Le_1":0.00264134451956,"Shape_Area":2.72322581014e-7,"name":"中航工业自控所生活2区","rate":0.374183802988,"ORIG_FID":78}},
{"type":"Feature","geometry":{"type":"Point","coordinates":[108.91792450642036,34.21484091051873,0,-1.7976931348623157e+308]},"properties":{"OBJECTID":80,"Join_Count":12,"TARGET_FID":156,"åç§°":"航天科工210所生活一区","POLY_AREA":17278.7538753,"å°å­¦æ":0.474708290314,"Shape_Leng":967.819963696,"Shape_Ar_1":36398.6773094,"Shape_Le_1":0.00962103343053,"Shape_Area":0.00000356042878165,"name":"航天科工210所生活一区","rate":0.474708290314,"ORIG_FID":79}},
{"type":"Feature","geometry":{"type":"Point","coordinates":[108.91614713385462,34.214826406583626,0,-1.7976931348623157e+308]},"properties":{"OBJECTID":81,"Join_Count":9,"TARGET_FID":157,"åç§°":"西安卫光电工厂生活区","POLY_AREA":344.996563199,"å°å­¦æ":0.00913990072052,"Shape_Leng":915.345737009,"Shape_Ar_1":37746.2046633,"Shape_Le_1":0.00901654944399,"Shape_Area":0.00000369223526573,"name":"西安卫光电工厂生活区","rate":0.00913990072052,"ORIG_FID":80}},
{"type":"Feature","geometry":{"type":"Point","coordinates":[108.91820058994662,34.21160638755209,0,-1.7976931348623157e+308]},"properties":{"OBJECTID":82,"Join_Count":3,"TARGET_FID":160,"åç§°":"蓝天阁","POLY_AREA":10740.0551588,"å°å­¦æ":1,"Shape_Leng":480.253396205,"Shape_Ar_1":10740.0551588,"Shape_Le_1":0.00487244144919,"Shape_Area":0.00000105052814654,"name":"蓝天阁","rate":1,"ORIG_FID":81}},
{"type":"Feature","geometry":{"type":"Point","coordinates":[108.91815945631996,34.210734695871906,0,-1.7976931348623157e+308]},"properties":{"OBJECTID":83,"Join_Count":4,"TARGET_FID":161,"åç§°":"幸福时光","POLY_AREA":10740.0551588,"å°å­¦æ":0.641361784293,"Shape_Leng":529.733043805,"Shape_Ar_1":16745.7048764,"Shape_Le_1":0.005341015586,"Shape_Area":0.00000163794454473,"name":"幸福时光","rate":0.641361784293,"ORIG_FID":82}},
{"type":"Feature","geometry":{"type":"Point","coordinates":[108.92123908269171,34.213179069376956,0,-1.7976931348623157e+308]},"properties":{"OBJECTID":84,"Join_Count":4,"TARGET_FID":163,"åç§°":"青松公寓","POLY_AREA":3416.7151311,"å°å­¦æ":0.999723575317,"Shape_Leng":236.866998289,"Shape_Ar_1":3417.65985664,"Shape_Le_1":0.00238678441974,"Shape_Area":3.34301102377e-7,"name":"青松公寓","rate":0.999723575317,"ORIG_FID":83}},
{"type":"Feature","geometry":{"type":"Point","coordinates":[108.92050062105768,34.21144019538854,0,-1.7976931348623157e+308]},"properties":{"OBJECTID":85,"Join_Count":6,"TARGET_FID":164,"åç§°":"万国花园","POLY_AREA":12615.2942964,"å°å­¦æ":0.184837472687,"Shape_Leng":1159.04535352,"Shape_Ar_1":68250.7400314,"Shape_Le_1":0.0114851753582,"Shape_Area":0.00000667588056151,"name":"万国花园","rate":0.184837472687,"ORIG_FID":84}},
{"type":"Feature","geometry":{"type":"Point","coordinates":[108.9230392707031,34.21219604328034,0,-1.7976931348623157e+308]},"properties":{"OBJECTID":86,"Join_Count":1,"TARGET_FID":165,"åç§°":"石油管材研究所公寓","POLY_AREA":285.099281465,"å°å­¦æ":0.0424281846228,"Shape_Leng":342.290785235,"Shape_Ar_1":6719.57294424,"Shape_Le_1":0.00348986532732,"Shape_Area":6.57274216241e-7,"name":"石油管材研究所公寓","rate":0.0424281846228,"ORIG_FID":85}},
{"type":"Feature","geometry":{"type":"Point","coordinates":[108.92348103349725,34.21076208817801,0,-1.7976931348623157e+308]},"properties":{"OBJECTID":87,"Join_Count":2,"TARGET_FID":166,"åç§°":"雁塔区教育局46中学家属院","POLY_AREA":1064.6214,"å°å­¦æ":0.403356341747,"Shape_Leng":261.002866019,"Shape_Ar_1":2639.40662341,"Shape_Le_1":0.0024433276896,"Shape_Area":2.58169152248e-7,"name":"雁塔区教育局46中学家属院","rate":0.403356341747,"ORIG_FID":86}},
{"type":"Feature","geometry":{"type":"Point","coordinates":[108.91800566521727,34.207673401221584,0,-1.7976931348623157e+308]},"properties":{"OBJECTID":88,"Join_Count":6,"TARGET_FID":168,"åç§°":"北山门口村","POLY_AREA":12615.2942964,"å°å­¦æ":0.0662206200643,"Shape_Leng":2812.47298578,"Shape_Ar_1":190504.019506,"Shape_Le_1":0.0282204885495,"Shape_Area":0.0000186330834291,"name":"北山门口村","rate":0.0662206200643,"ORIG_FID":87}},
{"type":"Feature","geometry":{"type":"Point","coordinates":[108.9246373617506,34.21131819457738,0,-1.7976931348623157e+308]},"properties":{"OBJECTID":89,"Join_Count":1,"TARGET_FID":169,"åç§°":"苹果城","POLY_AREA":18673.9831582,"å°å­¦æ":0.577718882773,"Shape_Leng":729.183381736,"Shape_Ar_1":32323.6503341,"Shape_Le_1":0.00715731611434,"Shape_Area":0.00000316170695092,"name":"苹果城","rate":0.577718882773,"ORIG_FID":88}},
{"type":"Feature","geometry":{"type":"Point","coordinates":[108.91664608673447,34.21223772402547,0,-1.7976931348623157e+308]},"properties":{"OBJECTID":90,"Join_Count":6,"TARGET_FID":171,"åç§°":"晟方佳园","POLY_AREA":6082.22521271,"å°å­¦æ":0.470328695006,"Shape_Leng":501.431720913,"Shape_Ar_1":12931.8607971,"Shape_Le_1":0.00492459874125,"Shape_Area":0.00000126492270368,"name":"晟方佳园","rate":0.470328695006,"ORIG_FID":89}},
{"type":"Feature","geometry":{"type":"Point","coordinates":[108.88920102775818,34.22661555293213,0,-1.7976931348623157e+308]},"properties":{"OBJECTID":91,"Join_Count":2,"TARGET_FID":172,"åç§°":"四季风景","POLY_AREA":9383.00181451,"å°å­¦æ":1,"Shape_Leng":394.334033541,"Shape_Ar_1":9383.00181451,"Shape_Le_1":0.00384444185508,"Shape_Area":9.17923952047e-7,"name":"四季风景","rate":1,"ORIG_FID":90}},
{"type":"Feature","geometry":{"type":"Point","coordinates":[108.89211497723383,34.22398766920455,0,-1.7976931348623157e+308]},"properties":{"OBJECTID":92,"Join_Count":4,"TARGET_FID":173,"åç§°":"中大国际九号","POLY_AREA":1294.03508691,"å°å­¦æ":0.0516060861186,"Shape_Leng":681.910087226,"Shape_Ar_1":25075.2417832,"Shape_Le_1":0.00664309524337,"Shape_Area":0.00000245300572441,"name":"中大国际九号","rate":0.0516060861186,"ORIG_FID":91}},
{"type":"Feature","geometry":{"type":"Point","coordinates":[108.88788659709395,34.22597933353452,0,-1.7976931348623157e+308]},"properties":{"OBJECTID":93,"Join_Count":2,"TARGET_FID":174,"åç§°":"枫叶新新家园","POLY_AREA":9383.00181451,"å°å­¦æ":0.202569760767,"Shape_Leng":986.554421898,"Shape_Ar_1":46319.8543504,"Shape_Le_1":0.00965238106673,"Shape_Area":0.00000453136321564,"name":"枫叶新新家园","rate":0.202569760767,"ORIG_FID":92}},
{"type":"Feature","geometry":{"type":"Point","coordinates":[108.89097960316846,34.221427560967555,0,-1.7976931348623157e+308]},"properties":{"OBJECTID":94,"Join_Count":8,"TARGET_FID":175,"åç§°":"天地源丹轩坊","POLY_AREA":3910.15029383,"å°å­¦æ":0.0693493658844,"Shape_Leng":949.52450794,"Shape_Ar_1":56383.3604528,"Shape_Le_1":0.00933614682362,"Shape_Area":0.00000551556574626,"name":"天地源丹轩坊","rate":0.0693493658844,"ORIG_FID":93}},
{"type":"Feature","geometry":{"type":"Point","coordinates":[108.89291904866354,34.220441417851404,0,-1.7976931348623157e+308]},"properties":{"OBJECTID":95,"Join_Count":7,"TARGET_FID":176,"åç§°":"云顶园","POLY_AREA":495.000669756,"å°å­¦æ":0.0102841603827,"Shape_Leng":933.353581717,"Shape_Ar_1":48132.3366552,"Shape_Le_1":0.00896336926568,"Shape_Area":0.0000047083821237,"name":"云顶园","rate":0.0102841603827,"ORIG_FID":94}},
{"type":"Feature","geometry":{"type":"Point","coordinates":[108.89585291984093,34.22219214755316,0,-1.7976931348623157e+308]},"properties":{"OBJECTID":96,"Join_Count":7,"TARGET_FID":177,"åç§°":"甘家寨小区西区","POLY_AREA":5995.06273045,"å°å­¦æ":0.134113159725,"Shape_Leng":845.687855454,"Shape_Ar_1":44701.5247628,"Shape_Le_1":0.00839170856193,"Shape_Area":0.00000437287698765,"name":"甘家寨小区西区","rate":0.134113159725,"ORIG_FID":95}},
{"type":"Feature","geometry":{"type":"Point","coordinates":[108.89814207412347,34.220163073276844,0,-1.7976931348623157e+308]},"properties":{"OBJECTID":97,"Join_Count":3,"TARGET_FID":178,"åç§°":"甘家寨","POLY_AREA":111059.270165,"å°å­¦æ":0.505707346249,"Shape_Leng":1982.43755618,"Shape_Ar_1":219611.73985,"Shape_Le_1":0.0194331362305,"Shape_Area":0.0000214828187484,"name":"甘家寨","rate":0.505707346249,"ORIG_FID":96}},
{"type":"Feature","geometry":{"type":"Point","coordinates":[108.88845759042354,34.21830390874794,0,-1.7976931348623157e+308]},"properties":{"OBJECTID":98,"Join_Count":3,"TARGET_FID":179,"åç§°":"橡树星座","POLY_AREA":7034.57048108,"å°å­¦æ":0.624920981524,"Shape_Leng":419.822392216,"Shape_Ar_1":11256.7359539,"Shape_Le_1":0.00418522442939,"Shape_Area":0.00000110112116938,"name":"橡树星座","rate":0.624920981524,"ORIG_FID":97}},
{"type":"Feature","geometry":{"type":"Point","coordinates":[108.88964680482371,34.21932276628702,0,-1.7976931348623157e+308]},"properties":{"OBJECTID":99,"Join_Count":10,"TARGET_FID":181,"åç§°":"望庭国际","POLY_AREA":7034.57048108,"å°å­¦æ":0.206453248665,"Shape_Leng":762.898706272,"Shape_Ar_1":34073.4307964,"Shape_Le_1":0.0076079278611,"Shape_Area":0.00000333306664729,"name":"望庭国际","rate":0.206453248665,"ORIG_FID":98}},
{"type":"Feature","geometry":{"type":"Point","coordinates":[108.88729248600158,34.21991357868548,0,-1.7976931348623157e+308]},"properties":{"OBJECTID":100,"Join_Count":3,"TARGET_FID":183,"åç§°":"长安居","POLY_AREA":3831.88685416,"å°å­¦æ":0.131862582726,"Shape_Leng":714.726508088,"Shape_Ar_1":29059.6981716,"Shape_Le_1":0.00717028160973,"Shape_Area":0.00000284263640376,"name":"长安居","rate":0.131862582726,"ORIG_FID":99}},
{"type":"Feature","geometry":{"type":"Point","coordinates":[108.88841519893361,34.21683019144002,0,-1.7976931348623157e+308]},"properties":{"OBJECTID":101,"Join_Count":1,"TARGET_FID":185,"åç§°":"领先时代广场","POLY_AREA":167.279642506,"å°å­¦æ":0.00949573693874,"Shape_Leng":530.91904734,"Shape_Ar_1":17616.288613,"Shape_Le_1":0.00525006497908,"Shape_Area":0.00000172317506748,"name":"领先时代广场","rate":0.00949573693874,"ORIG_FID":100}},
{"type":"Feature","geometry":{"type":"Point","coordinates":[108.8958848334379,34.211390640347005,0,-1.7976931348623157e+308]},"properties":{"OBJECTID":102,"Join_Count":1,"TARGET_FID":192,"åç§°":"香榭兰亭","POLY_AREA":1874.85181511,"å°å­¦æ":0.0669124385625,"Shape_Leng":688.586315898,"Shape_Ar_1":28019.4812114,"Shape_Le_1":0.00705538046984,"Shape_Area":0.00000274063509275,"name":"香榭兰亭","rate":0.0669124385625,"ORIG_FID":101}},
{"type":"Feature","geometry":{"type":"Point","coordinates":[108.89930846213085,34.212497981868374,0,-1.7976931348623157e+308]},"properties":{"OBJECTID":103,"Join_Count":1,"TARGET_FID":193,"åç§°":"建邦华庭","POLY_AREA":56215.8039802,"å°å­¦æ":0.977254228734,"Shape_Leng":1044.75702697,"Shape_Ar_1":57524.23712,"Shape_Le_1":0.0107614901396,"Shape_Area":0.00000562662133937,"name":"建邦华庭","rate":0.977254228734,"ORIG_FID":102}},
{"type":"Feature","geometry":{"type":"Point","coordinates":[108.90254761201706,34.21434094867761,0,-1.7976931348623157e+308]},"properties":{"OBJECTID":104,"Join_Count":2,"TARGET_FID":194,"åç§°":"大华阳光曼哈顿","POLY_AREA":17678.7260515,"å°å­¦æ":0.733829902082,"Shape_Leng":637.084097671,"Shape_Ar_1":24091.0407185,"Shape_Le_1":0.00641176670713,"Shape_Area":0.00000235647774471,"name":"大华阳光曼哈顿","rate":0.733829902082,"ORIG_FID":103}},
{"type":"Feature","geometry":{"type":"Point","coordinates":[108.89285956429549,34.21583775136284,0,-1.7976931348623157e+308]},"properties":{"OBJECTID":105,"Join_Count":4,"TARGET_FID":197,"åç§°":"天地源枫林绿洲","POLY_AREA":5777.13575291,"å°å­¦æ":0.0146914039129,"Shape_Leng":2582.92603436,"Shape_Ar_1":393232.381818,"Shape_Le_1":0.0261388296057,"Shape_Area":0.000038464572191,"name":"天地源枫林绿洲","rate":0.0146914039129,"ORIG_FID":104}},
{"type":"Feature","geometry":{"type":"Point","coordinates":[108.89735177597548,34.20863679209605,0,-1.7976931348623157e+308]},"properties":{"OBJECTID":106,"Join_Count":1,"TARGET_FID":198,"åç§°":"坤元TIME","POLY_AREA":19857.1290783,"å°å­¦æ":0.533218438876,"Shape_Leng":816.554469036,"Shape_Ar_1":37240.1395573,"Shape_Le_1":0.00819031793912,"Shape_Area":0.00000364241069368,"name":"坤元TIME","rate":0.533218438876,"ORIG_FID":105}},
{"type":"Feature","geometry":{"type":"Point","coordinates":[108.89064645627238,34.2253187172614,0,-1.7976931348623157e+308]},"properties":{"OBJECTID":107,"Join_Count":3,"TARGET_FID":200,"åç§°":"天地源丹轩梓园","POLY_AREA":69861.8366102,"å°å­¦æ":0.997856678225,"Shape_Leng":1114.78277735,"Shape_Ar_1":70011.8946284,"Shape_Le_1":0.0110170688282,"Shape_Area":0.00000684906564731,"name":"天地源丹轩梓园","rate":0.997856678225,"ORIG_FID":106}},
{"type":"Feature","geometry":{"type":"Point","coordinates":[108.8897926854636,34.22253042482752,0,-1.7976931348623157e+308]},"properties":{"OBJECTID":108,"Join_Count":3,"TARGET_FID":206,"åç§°":"万科LOFT公寓","POLY_AREA":12295.7564503,"å°å­¦æ":0.98541186594,"Shape_Leng":500.287161973,"Shape_Ar_1":12477.7840366,"Shape_Le_1":0.00484647809948,"Shape_Area":0.00000122062338577,"name":"万科LOFT公寓","rate":0.98541186594,"ORIG_FID":107}},
{"type":"Feature","geometry":{"type":"Point","coordinates":[108.91063143181289,34.23738780695799,0,-1.7976931348623157e+308]},"properties":{"OBJECTID":109,"Join_Count":0,"TARGET_FID":3,"åç§°":"二十所家属院","POLY_AREA":0,"å°å­¦æ":0,"Shape_Leng":432.665650466,"Shape_Ar_1":12120.5627603,"Shape_Le_1":0.00428591217238,"Shape_Area":0.00000118590724125,"name":"二十所家属院","rate":0,"ORIG_FID":108}},
{"type":"Feature","geometry":{"type":"Point","coordinates":[108.90134929064831,34.23855226262828,0,-1.7976931348623157e+308]},"properties":{"OBJECTID":110,"Join_Count":0,"TARGET_FID":14,"åç§°":"高新枫尚住区","POLY_AREA":0,"å°å­¦æ":0,"Shape_Leng":362.87559851,"Shape_Ar_1":7459.70693755,"Shape_Le_1":0.00358651812642,"Shape_Area":7.29882023613e-7,"name":"高新枫尚住区","rate":0,"ORIG_FID":109}},
{"type":"Feature","geometry":{"type":"Point","coordinates":[108.90180878852823,34.239356909597596,0,-1.7976931348623157e+308]},"properties":{"OBJECTID":111,"Join_Count":0,"TARGET_FID":16,"åç§°":"正信大厦","POLY_AREA":0,"å°å­¦æ":0,"Shape_Leng":338.747961779,"Shape_Ar_1":5115.97346412,"Shape_Le_1":0.00345403275332,"Shape_Area":5.00566880627e-7,"name":"正信大厦","rate":0,"ORIG_FID":110}},
{"type":"Feature","geometry":{"type":"Point","coordinates":[108.89323096158508,34.237634365741854,0,-1.7976931348623157e+308]},"properties":{"OBJECTID":112,"Join_Count":0,"TARGET_FID":18,"åç§°":"方舟国际","POLY_AREA":0,"å°å­¦æ":0,"Shape_Leng":195.378611778,"Shape_Ar_1":2381.14048252,"Shape_Le_1":0.00196921894754,"Shape_Area":2.32973737372e-7,"name":"方舟国际","rate":0,"ORIG_FID":111}},
{"type":"Feature","geometry":{"type":"Point","coordinates":[108.89601104287046,34.235240936560686,0,-1.7976931348623157e+308]},"properties":{"OBJECTID":113,"Join_Count":0,"TARGET_FID":24,"åç§°":"亚美大厦","POLY_AREA":0,"å°å­¦æ":0,"Shape_Leng":357.160502575,"Shape_Ar_1":8059.02718196,"Shape_Le_1":0.0035224565026,"Shape_Area":7.88486164214e-7,"name":"亚美大厦","rate":0,"ORIG_FID":112}},
{"type":"Feature","geometry":{"type":"Point","coordinates":[108.90180878852823,34.239356909597596,0,-1.7976931348623157e+308]},"properties":{"OBJECTID":114,"Join_Count":0,"TARGET_FID":25,"åç§°":"正信大厦","POLY_AREA":0,"å°å­¦æ":0,"Shape_Leng":338.747961779,"Shape_Ar_1":5115.97346412,"Shape_Le_1":0.00345403275332,"Shape_Area":5.00566880627e-7,"name":"正信大厦","rate":0,"ORIG_FID":113}},
{"type":"Feature","geometry":{"type":"Point","coordinates":[108.89455212118848,34.22729310236714,0,-1.7976931348623157e+308]},"properties":{"OBJECTID":115,"Join_Count":0,"TARGET_FID":34,"åç§°":"华立苑小区","POLY_AREA":0,"å°å­¦æ":0,"Shape_Leng":702.439853868,"Shape_Ar_1":28540.0805958,"Shape_Le_1":0.00708886772588,"Shape_Area":0.00000279206727182,"name":"华立苑小区","rate":0,"ORIG_FID":114}},
{"type":"Feature","geometry":{"type":"Point","coordinates":[108.89388466282843,34.23045552705604,0,-1.7976931348623157e+308]},"properties":{"OBJECTID":116,"Join_Count":0,"TARGET_FID":36,"åç§°":"枫林苑别墅区","POLY_AREA":0,"å°å­¦æ":0,"Shape_Leng":1222.17621356,"Shape_Ar_1":91611.6899865,"Shape_Le_1":0.0120464813516,"Shape_Area":0.00000896266836133,"name":"枫林苑别墅区","rate":0,"ORIG_FID":115}},
{"type":"Feature","geometry":{"type":"Point","coordinates":[108.89731989594515,34.2273794473578,0,-1.7976931348623157e+308]},"properties":{"OBJECTID":117,"Join_Count":0,"TARGET_FID":42,"åç§°":"枫叶广场","POLY_AREA":0,"å°å­¦æ":0,"Shape_Leng":570.166522035,"Shape_Ar_1":14166.9676377,"Shape_Le_1":0.00573429845567,"Shape_Area":0.00000138595839369,"name":"枫叶广场","rate":0,"ORIG_FID":116}},
{"type":"Feature","geometry":{"type":"Point","coordinates":[108.89890196311177,34.22644607567761,0,-1.7976931348623157e+308]},"properties":{"OBJECTID":118,"Join_Count":0,"TARGET_FID":43,"åç§°":"高新第一幼儿","POLY_AREA":0,"å°å­¦æ":0,"Shape_Leng":394.182945918,"Shape_Ar_1":7548.63839016,"Shape_Le_1":0.00402258531471,"Shape_Area":7.38476182422e-7,"name":"高新第一幼儿","rate":0,"ORIG_FID":117}},
{"type":"Feature","geometry":{"type":"Point","coordinates":[108.89793757753485,34.22883500905259,0,-1.7976931348623157e+308]},"properties":{"OBJECTID":119,"Join_Count":0,"TARGET_FID":44,"åç§°":"枫叶大厦","POLY_AREA":0,"å°å­¦æ":0,"Shape_Leng":339.238836868,"Shape_Ar_1":7390.93586695,"Shape_Le_1":0.00338855266612,"Shape_Area":7.23068761254e-7,"name":"枫叶大厦","rate":0,"ORIG_FID":118}},
{"type":"Feature","geometry":{"type":"Point","coordinates":[108.89599626560991,34.22554660979697,0,-1.7976931348623157e+308]},"properties":{"OBJECTID":120,"Join_Count":0,"TARGET_FID":45,"åç§°":"高新水晶城","POLY_AREA":0,"å°å­¦æ":0,"Shape_Leng":548.738928633,"Shape_Ar_1":15035.5218693,"Shape_Le_1":0.00543906147386,"Shape_Area":0.00000147089284113,"name":"高新水晶城","rate":0,"ORIG_FID":119}},
{"type":"Feature","geometry":{"type":"Point","coordinates":[108.89860911587037,34.22530363683671,0,-1.7976931348623157e+308]},"properties":{"OBJECTID":121,"Join_Count":0,"TARGET_FID":46,"åç§°":"汇翔苑","POLY_AREA":0,"å°å­¦æ":0,"Shape_Leng":224.417733354,"Shape_Ar_1":2893.29249027,"Shape_Le_1":0.00226777128773,"Shape_Area":2.83044420752e-7,"name":"汇翔苑","rate":0,"ORIG_FID":120}},
{"type":"Feature","geometry":{"type":"Point","coordinates":[108.89883001563027,34.22576320236506,0,-1.7976931348623157e+308]},"properties":{"OBJECTID":122,"Join_Count":0,"TARGET_FID":47,"åç§°":"鑫宇住宅小区","POLY_AREA":0,"å°å­¦æ":0,"Shape_Leng":305.693244864,"Shape_Ar_1":5836.77885794,"Shape_Le_1":0.00305749631504,"Shape_Area":5.71001934805e-7,"name":"鑫宇住宅小区","rate":0,"ORIG_FID":121}},
{"type":"Feature","geometry":{"type":"Point","coordinates":[108.89788177294928,34.22583808346582,0,-1.7976931348623157e+308]},"properties":{"OBJECTID":123,"Join_Count":0,"TARGET_FID":48,"åç§°":"陕西省总工会","POLY_AREA":0,"å°å­¦æ":0,"Shape_Leng":360.870678938,"Shape_Ar_1":7487.18221798,"Shape_Le_1":0.00361178135999,"Shape_Area":7.32458697611e-7,"name":"陕西省总工会","rate":0,"ORIG_FID":122}},
{"type":"Feature","geometry":{"type":"Point","coordinates":[108.89814313467235,34.22629974079048,0,-1.7976931348623157e+308]},"properties":{"OBJECTID":124,"Join_Count":0,"TARGET_FID":49,"åç§°":"西安建总高新","POLY_AREA":0,"å°å­¦æ":0,"Shape_Leng":218.771096191,"Shape_Ar_1":2179.71814498,"Shape_Le_1":0.00223545521088,"Shape_Area":2.13239385847e-7,"name":"西安建总高新","rate":0,"ORIG_FID":123}},
{"type":"Feature","geometry":{"type":"Point","coordinates":[108.89724106240631,34.22632107763839,0,-1.7976931348623157e+308]},"properties":{"OBJECTID":125,"Join_Count":0,"TARGET_FID":50,"åç§°":"西宝分公司住","POLY_AREA":0,"å°å­¦æ":0,"Shape_Leng":334.218241843,"Shape_Ar_1":6697.73209717,"Shape_Le_1":0.00329488736702,"Shape_Area":6.55230958361e-7,"name":"西宝分公司住","rate":0,"ORIG_FID":124}},
{"type":"Feature","geometry":{"type":"Point","coordinates":[108.89650139835786,34.226631958884944,0,-1.7976931348623157e+308]},"properties":{"OBJECTID":126,"Join_Count":0,"TARGET_FID":51,"åç§°":"含光佳苑","POLY_AREA":0,"å°å­¦æ":0,"Shape_Leng":389.050453917,"Shape_Ar_1":9570.8024427,"Shape_Le_1":0.00384773838793,"Shape_Area":9.36303921341e-7,"name":"含光佳苑","rate":0,"ORIG_FID":125}},
{"type":"Feature","geometry":{"type":"Point","coordinates":[108.90042390756118,34.22576643680546,0,-1.7976931348623157e+308]},"properties":{"OBJECTID":127,"Join_Count":0,"TARGET_FID":52,"åç§°":"群贤花园","POLY_AREA":0,"å°å­¦æ":0,"Shape_Leng":362.957131636,"Shape_Ar_1":7046.64966282,"Shape_Le_1":0.00366480699054,"Shape_Area":6.89364087155e-7,"name":"群贤花园","rate":0,"ORIG_FID":126}},
{"type":"Feature","geometry":{"type":"Point","coordinates":[108.90142918257307,34.22365731002306,0,-1.7976931348623157e+308]},"properties":{"OBJECTID":128,"Join_Count":0,"TARGET_FID":53,"åç§°":"中天花园","POLY_AREA":0,"å°å­¦æ":0,"Shape_Leng":735.405477074,"Shape_Ar_1":31759.7502878,"Shape_Le_1":0.00716069736659,"Shape_Area":0.0000031069334477,"name":"中天花园","rate":0,"ORIG_FID":127}},
{"type":"Feature","geometry":{"type":"Point","coordinates":[108.8998829718673,34.22381874567457,0,-1.7976931348623157e+308]},"properties":{"OBJECTID":129,"Join_Count":0,"TARGET_FID":54,"åç§°":"欣景苑","POLY_AREA":0,"å°å­¦æ":0,"Shape_Leng":613.057718615,"Shape_Ar_1":14560.3925842,"Shape_Le_1":0.0061843678596,"Shape_Area":0.00000142438460585,"name":"欣景苑","rate":0,"ORIG_FID":128}},
{"type":"Feature","geometry":{"type":"Point","coordinates":[108.90017563974992,34.22483815099902,0,-1.7976931348623157e+308]},"properties":{"OBJECTID":130,"Join_Count":0,"TARGET_FID":55,"åç§°":"双威温馨花园","POLY_AREA":0,"å°å­¦æ":0,"Shape_Leng":625.755470191,"Shape_Ar_1":23831.6227291,"Shape_Le_1":0.00629222794456,"Shape_Area":0.00000233138529073,"name":"双威温馨花园","rate":0,"ORIG_FID":129}},
{"type":"Feature","geometry":{"type":"Point","coordinates":[108.90936854695504,34.22808867488308,0,-1.7976931348623157e+308]},"properties":{"OBJECTID":131,"Join_Count":0,"TARGET_FID":82,"åç§°":"华奥大厦","POLY_AREA":0,"å°å­¦æ":0,"Shape_Leng":318.46684753,"Shape_Ar_1":5542.38649132,"Shape_Le_1":0.00320809110844,"Shape_Area":5.42221623877e-7,"name":"华奥大厦","rate":0,"ORIG_FID":130}},
{"type":"Feature","geometry":{"type":"Point","coordinates":[108.89945564857953,34.22785863924683,0,-1.7976931348623157e+308]},"properties":{"OBJECTID":132,"Join_Count":0,"TARGET_FID":84,"åç§°":"天然气小区","POLY_AREA":0,"å°å­¦æ":0,"Shape_Leng":445.467328504,"Shape_Ar_1":11836.2845796,"Shape_Le_1":0.00438200142982,"Shape_Area":0.00000115795374163,"name":"天然气小区","rate":0,"ORIG_FID":131}},
{"type":"Feature","geometry":{"type":"Point","coordinates":[108.89841554849184,34.227569065947876,0,-1.7976931348623157e+308]},"properties":{"OBJECTID":133,"Join_Count":0,"TARGET_FID":85,"åç§°":"泰祥花园","POLY_AREA":0,"å°å­¦æ":0,"Shape_Leng":575.978210913,"Shape_Ar_1":16578.0399817,"Shape_Le_1":0.00573315465632,"Shape_Area":0.00000162183579799,"name":"泰祥花园","rate":0,"ORIG_FID":132}},
{"type":"Feature","geometry":{"type":"Point","coordinates":[108.89738395206354,34.22450393063357,0,-1.7976931348623157e+308]},"properties":{"OBJECTID":134,"Join_Count":0,"TARGET_FID":86,"åç§°":"水晶国际","POLY_AREA":0,"å°å­¦æ":0,"Shape_Leng":457.569870692,"Shape_Ar_1":8644.97074005,"Shape_Le_1":0.00470846069516,"Shape_Area":8.45707658392e-7,"name":"水晶国际","rate":0,"ORIG_FID":133}},
{"type":"Feature","geometry":{"type":"Point","coordinates":[108.89721628718637,34.22527379504476,0,-1.7976931348623157e+308]},"properties":{"OBJECTID":135,"Join_Count":0,"TARGET_FID":87,"åç§°":"西北院家属院","POLY_AREA":0,"å°å­¦æ":0,"Shape_Leng":503.129647943,"Shape_Ar_1":13478.8015817,"Shape_Le_1":0.00504913680296,"Shape_Area":0.0000013185997804,"name":"西北院家属院","rate":0,"ORIG_FID":134}},
{"type":"Feature","geometry":{"type":"Point","coordinates":[108.89827672932579,34.224793341067205,0,-1.7976931348623157e+308]},"properties":{"OBJECTID":136,"Join_Count":0,"TARGET_FID":88,"åç§°":"雁塔法院小区","POLY_AREA":0,"å°å­¦æ":0,"Shape_Leng":321.734863466,"Shape_Ar_1":6405.8661444,"Shape_Le_1":0.00318884161248,"Shape_Area":6.26667491844e-7,"name":"雁塔法院小区","rate":0,"ORIG_FID":135}},
{"type":"Feature","geometry":{"type":"Point","coordinates":[108.89902744603395,34.22394090934193,0,-1.7976931348623157e+308]},"properties":{"OBJECTID":137,"Join_Count":0,"TARGET_FID":91,"åç§°":"盛世华庭","POLY_AREA":0,"å°å­¦æ":0,"Shape_Leng":342.363984903,"Shape_Ar_1":7447.69002672,"Shape_Le_1":0.00341319915836,"Shape_Area":7.28578968197e-7,"name":"盛世华庭","rate":0,"ORIG_FID":136}},
{"type":"Feature","geometry":{"type":"Point","coordinates":[108.87062650547097,34.225657560025894,0,-1.7976931348623157e+308]},"properties":{"OBJECTID":138,"Join_Count":0,"TARGET_FID":92,"åç§°":"高科房产","POLY_AREA":0,"å°å­¦æ":0,"Shape_Leng":1470.47322997,"Shape_Ar_1":95417.1686868,"Shape_Le_1":0.0145130740925,"Shape_Area":0.00000933428143175,"name":"高科房产","rate":0,"ORIG_FID":137}},
{"type":"Feature","geometry":{"type":"Point","coordinates":[108.88175325248274,34.212633406673014,0,-1.7976931348623157e+308]},"properties":{"OBJECTID":139,"Join_Count":0,"TARGET_FID":96,"åç§°":"橡树街区","POLY_AREA":0,"å°å­¦æ":0,"Shape_Leng":763.91000366,"Shape_Ar_1":31974.5016585,"Shape_Le_1":0.00782975386097,"Shape_Area":0.00000312747530237,"name":"橡树街区","rate":0,"ORIG_FID":138}},
{"type":"Feature","geometry":{"type":"Point","coordinates":[108.87490835579976,34.20886239709551,0,-1.7976931348623157e+308]},"properties":{"OBJECTID":140,"Join_Count":0,"TARGET_FID":102,"åç§°":"高科","POLY_AREA":0,"å°å­¦æ":0,"Shape_Leng":1031.09397505,"Shape_Ar_1":41914.4600604,"Shape_Le_1":0.0108220131215,"Shape_Area":0.00000409953368491,"name":"高科","rate":0,"ORIG_FID":139}},
{"type":"Feature","geometry":{"type":"Point","coordinates":[108.87986389391185,34.208867727724076,0,-1.7976931348623157e+308]},"properties":{"OBJECTID":141,"Join_Count":0,"TARGET_FID":103,"åç§°":"消防小区","POLY_AREA":0,"å°å­¦æ":0,"Shape_Leng":516.881942018,"Shape_Ar_1":15549.8429347,"Shape_Le_1":0.00525468275585,"Shape_Area":0.0000015208890259,"name":"消防小区","rate":0,"ORIG_FID":140}},
{"type":"Feature","geometry":{"type":"Point","coordinates":[108.88192223585227,34.208865781144404,0,-1.7976931348623157e+308]},"properties":{"OBJECTID":142,"Join_Count":0,"TARGET_FID":104,"åç§°":"西水置业","POLY_AREA":0,"å°å­¦æ":0,"Shape_Leng":351.544252319,"Shape_Ar_1":7671.05610469,"Shape_Le_1":0.0034649574677,"Shape_Area":7.50287048658e-7,"name":"西水置业","rate":0,"ORIG_FID":141}},
{"type":"Feature","geometry":{"type":"Point","coordinates":[108.88312609402443,34.20886371431277,0,-1.7976931348623157e+308]},"properties":{"OBJECTID":143,"Join_Count":0,"TARGET_FID":105,"åç§°":"水岸阳光","POLY_AREA":0,"å°å­¦æ":0,"Shape_Leng":474.613726794,"Shape_Ar_1":13353.1494738,"Shape_Le_1":0.00480831154099,"Shape_Area":0.00000130604060642,"name":"水岸阳光","rate":0,"ORIG_FID":142}},
{"type":"Feature","geometry":{"type":"Point","coordinates":[108.88284375607368,34.238063038952404,0,-1.7976931348623157e+308]},"properties":{"OBJECTID":144,"Join_Count":0,"TARGET_FID":106,"åç§°":"天地源公寓","POLY_AREA":0,"å°å­¦æ":0,"Shape_Leng":236.077350173,"Shape_Ar_1":3257.05457254,"Shape_Le_1":0.00241121507497,"Shape_Area":3.18673296134e-7,"name":"天地源公寓","rate":0,"ORIG_FID":143}},
{"type":"Feature","geometry":{"type":"Point","coordinates":[108.87318226053578,34.22947791050658,0,-1.7976931348623157e+308]},"properties":{"OBJECTID":145,"Join_Count":0,"TARGET_FID":117,"åç§°":"金松大厦","POLY_AREA":0,"å°å­¦æ":0,"Shape_Leng":298.848151324,"Shape_Ar_1":5586.45430793,"Shape_Le_1":0.00291449641799,"Shape_Area":5.46524507834e-7,"name":"金松大厦","rate":0,"ORIG_FID":144}},
{"type":"Feature","geometry":{"type":"Point","coordinates":[108.86921025828313,34.23047497707656,0,-1.7976931348623157e+308]},"properties":{"OBJECTID":146,"Join_Count":0,"TARGET_FID":119,"åç§°":"赢园雅筑","POLY_AREA":0,"å°å­¦æ":0,"Shape_Leng":406.246004138,"Shape_Ar_1":10294.5433076,"Shape_Le_1":0.00410426462294,"Shape_Area":0.00000100712607535,"name":"赢园雅筑","rate":0,"ORIG_FID":145}},
{"type":"Feature","geometry":{"type":"Point","coordinates":[108.89124352692318,34.23551390253078,0,-1.7976931348623157e+308]},"properties":{"OBJECTID":147,"Join_Count":0,"TARGET_FID":121,"åç§°":"高科花园一期","POLY_AREA":0,"å°å­¦æ":0,"Shape_Leng":720.645644427,"Shape_Ar_1":32018.149113,"Shape_Le_1":0.00702636012053,"Shape_Area":0.00000313261477376,"name":"高科花园一期","rate":0,"ORIG_FID":146}},
{"type":"Feature","geometry":{"type":"Point","coordinates":[108.88630937951373,34.237969330189614,0,-1.7976931348623157e+308]},"properties":{"OBJECTID":148,"Join_Count":0,"TARGET_FID":122,"åç§°":"旺座国际","POLY_AREA":0,"å°å­¦æ":0,"Shape_Leng":609.691373392,"Shape_Ar_1":23280.5270972,"Shape_Le_1":0.00619803598809,"Shape_Area":0.0000022778001418,"name":"旺座国际","rate":0,"ORIG_FID":147}},
{"type":"Feature","geometry":{"type":"Point","coordinates":[108.8879261038068,34.237003846056915,0,-1.7976931348623157e+308]},"properties":{"OBJECTID":149,"Join_Count":0,"TARGET_FID":123,"åç§°":"金桥国际广场","POLY_AREA":0,"å°å­¦æ":0,"Shape_Leng":610.707891574,"Shape_Ar_1":19197.8418493,"Shape_Le_1":0.00583046120531,"Shape_Area":0.00000187832163051,"name":"金桥国际广场","rate":0,"ORIG_FID":148}},
{"type":"Feature","geometry":{"type":"Point","coordinates":[108.88889591647053,34.231830008006874,0,-1.7976931348623157e+308]},"properties":{"OBJECTID":150,"Join_Count":0,"TARGET_FID":124,"åç§°":"高新地产","POLY_AREA":0,"å°å­¦æ":0,"Shape_Leng":158.642457456,"Shape_Ar_1":1450.59644431,"Shape_Le_1":0.00161659476689,"Shape_Area":1.4191821252e-7,"name":"高新地产","rate":0,"ORIG_FID":149}},
{"type":"Feature","geometry":{"type":"Point","coordinates":[108.8888961180549,34.231572886963974,0,-1.7976931348623157e+308]},"properties":{"OBJECTID":151,"Join_Count":0,"TARGET_FID":125,"åç§°":"文华地产","POLY_AREA":0,"å°å­¦æ":0,"Shape_Leng":158.588947978,"Shape_Ar_1":1446.44504482,"Shape_Le_1":0.00161655908497,"Shape_Area":1.41511726201e-7,"name":"文华地产","rate":0,"ORIG_FID":150}},
{"type":"Feature","geometry":{"type":"Point","coordinates":[108.88892839683251,34.231182414812054,0,-1.7976931348623157e+308]},"properties":{"OBJECTID":152,"Join_Count":0,"TARGET_FID":126,"åç§°":"枫景观天下","POLY_AREA":0,"å°å­¦æ":0,"Shape_Leng":207.476012256,"Shape_Ar_1":2648.60742365,"Shape_Le_1":0.00203724891997,"Shape_Area":2.59122645253e-7,"name":"枫景观天下","rate":0,"ORIG_FID":151}},
{"type":"Feature","geometry":{"type":"Point","coordinates":[108.88856446099108,34.23244074409838,0,-1.7976931348623157e+308]},"properties":{"OBJECTID":153,"Join_Count":0,"TARGET_FID":127,"åç§°":"高科花园二期","POLY_AREA":0,"å°å­¦æ":0,"Shape_Leng":437.818487368,"Shape_Ar_1":11975.1655786,"Shape_Le_1":0.00435723192577,"Shape_Area":0.0000011715913347,"name":"高科花园二期","rate":0,"ORIG_FID":152}},
{"type":"Feature","geometry":{"type":"Point","coordinates":[108.88913881131053,34.23356070203501,0,-1.7976931348623157e+308]},"properties":{"OBJECTID":154,"Join_Count":0,"TARGET_FID":128,"åç§°":"高科花园三期","POLY_AREA":0,"å°å­¦æ":0,"Shape_Leng":698.463288838,"Shape_Ar_1":30418.3437315,"Shape_Le_1":0.00707723193082,"Shape_Area":0.00000297602459227,"name":"高科花园三期","rate":0,"ORIG_FID":153}},
{"type":"Feature","geometry":{"type":"Point","coordinates":[108.88883471603926,34.23070735611164,0,-1.7976931348623157e+308]},"properties":{"OBJECTID":155,"Join_Count":0,"TARGET_FID":129,"åç§°":"高新地产","POLY_AREA":0,"å°å­¦æ":0,"Shape_Leng":148.368846358,"Shape_Ar_1":1280.86246946,"Shape_Le_1":0.00143803055401,"Shape_Area":1.25310486764e-7,"name":"高新地产","rate":0,"ORIG_FID":154}},
{"type":"Feature","geometry":{"type":"Point","coordinates":[108.88863768512486,34.22946475307088,0,-1.7976931348623157e+308]},"properties":{"OBJECTID":156,"Join_Count":0,"TARGET_FID":132,"åç§°":"鸿景花园","POLY_AREA":0,"å°å­¦æ":0,"Shape_Leng":443.22655384,"Shape_Ar_1":12410.2271197,"Shape_Le_1":0.00446036243227,"Shape_Area":0.00000121411446291,"name":"鸿景花园","rate":0,"ORIG_FID":155}},
{"type":"Feature","geometry":{"type":"Point","coordinates":[108.90911567202699,34.212435567950436,0,-1.7976931348623157e+308]},"properties":{"OBJECTID":157,"Join_Count":0,"TARGET_FID":141,"åç§°":"中国电科三十九所生活一区","POLY_AREA":0,"å°å­¦æ":0,"Shape_Leng":697.089664125,"Shape_Ar_1":29054.4052852,"Shape_Le_1":0.0068028306837,"Shape_Area":0.00000284192785431,"name":"中国电科三十九所生活一区","rate":0,"ORIG_FID":156}},
{"type":"Feature","geometry":{"type":"Point","coordinates":[108.91299438594346,34.21036534887138,0,-1.7976931348623157e+308]},"properties":{"OBJECTID":158,"Join_Count":0,"TARGET_FID":143,"åç§°":"鑫园小区","POLY_AREA":0,"å°å­¦æ":0,"Shape_Leng":484.988792223,"Shape_Ar_1":11670.4470098,"Shape_Le_1":0.00494785912203,"Shape_Area":0.00000114150955624,"name":"鑫园小区","rate":0,"ORIG_FID":157}},
{"type":"Feature","geometry":{"type":"Point","coordinates":[108.91275686553469,34.207555883352,0,-1.7976931348623157e+308]},"properties":{"OBJECTID":159,"Join_Count":0,"TARGET_FID":144,"åç§°":"华半生活2区","POLY_AREA":0,"å°å­¦æ":0,"Shape_Leng":397.700447595,"Shape_Ar_1":8426.79002455,"Shape_Le_1":0.00381034476493,"Shape_Area":8.24213329588e-7,"name":"华半生活2区","rate":0,"ORIG_FID":158}},
{"type":"Feature","geometry":{"type":"Point","coordinates":[108.91059415721102,34.20748718791956,0,-1.7976931348623157e+308]},"properties":{"OBJECTID":160,"Join_Count":0,"TARGET_FID":145,"åç§°":"205所社区","POLY_AREA":0,"å°å­¦æ":0,"Shape_Leng":1002.54980444,"Shape_Ar_1":43881.6802685,"Shape_Le_1":0.010409815183,"Shape_Area":0.00000429200549866,"name":"205所社区","rate":0,"ORIG_FID":159}},
{"type":"Feature","geometry":{"type":"Point","coordinates":[108.91242372038202,34.20883113787897,0,-1.7976931348623157e+308]},"properties":{"OBJECTID":161,"Join_Count":0,"TARGET_FID":149,"åç§°":"唐家村","POLY_AREA":0,"å°å­¦æ":0,"Shape_Leng":1553.01272402,"Shape_Ar_1":91068.8454313,"Shape_Le_1":0.0156499719187,"Shape_Area":0.00000890744841006,"name":"唐家村","rate":0,"ORIG_FID":160}},
{"type":"Feature","geometry":{"type":"Point","coordinates":[108.90870593476485,34.208880953862604,0,-1.7976931348623157e+308]},"properties":{"OBJECTID":162,"Join_Count":0,"TARGET_FID":150,"åç§°":"西京电气总公司住宅楼","POLY_AREA":0,"å°å­¦æ":0,"Shape_Leng":293.548182464,"Shape_Ar_1":5344.41932662,"Shape_Le_1":0.00289968289207,"Shape_Area":5.22736706305e-7,"name":"西京电气总公司住宅楼","rate":0,"ORIG_FID":161}},
{"type":"Feature","geometry":{"type":"Point","coordinates":[108.9092720830763,34.208902260812785,0,-1.7976931348623157e+308]},"properties":{"OBJECTID":163,"Join_Count":0,"TARGET_FID":151,"åç§°":"西京社区南区","POLY_AREA":0,"å°å­¦æ":0,"Shape_Leng":839.942416609,"Shape_Ar_1":25007.2370103,"Shape_Le_1":0.00839720467801,"Shape_Area":0.00000244595610037,"name":"西京社区南区","rate":0,"ORIG_FID":162}},
{"type":"Feature","geometry":{"type":"Point","coordinates":[108.91014687702703,34.21249967240729,0,-1.7976931348623157e+308]},"properties":{"OBJECTID":164,"Join_Count":0,"TARGET_FID":153,"åç§°":"中国电科三十九所单身公寓","POLY_AREA":0,"å°å­¦æ":0,"Shape_Leng":563.968169117,"Shape_Ar_1":9026.22567645,"Shape_Le_1":0.00539163510365,"Shape_Area":8.82892047808e-7,"name":"中国电科三十九所单身公寓","rate":0,"ORIG_FID":163}},
{"type":"Feature","geometry":{"type":"Point","coordinates":[108.91002063776756,34.212304673549134,0,-1.7976931348623157e+308]},"properties":{"OBJECTID":165,"Join_Count":0,"TARGET_FID":154,"åç§°":"中国电子科技三十九所单身公寓","POLY_AREA":0,"å°å­¦æ":0,"Shape_Leng":129.304318577,"Shape_Ar_1":1066.78447048,"Shape_Le_1":0.00129627285908,"Shape_Area":1.04346384537e-7,"name":"中国电子科技三十九所单身公寓","rate":0,"ORIG_FID":164}},
{"type":"Feature","geometry":{"type":"Point","coordinates":[108.91675476302947,34.2101805292015,0,-1.7976931348623157e+308]},"properties":{"OBJECTID":166,"Join_Count":0,"TARGET_FID":162,"åç§°":"青年公寓","POLY_AREA":0,"å°å­¦æ":0,"Shape_Leng":396.575868752,"Shape_Ar_1":6889.63140642,"Shape_Le_1":0.00406867727238,"Shape_Area":6.73887900729e-7,"name":"青年公寓","rate":0,"ORIG_FID":165}},
{"type":"Feature","geometry":{"type":"Point","coordinates":[108.92066070113137,34.20709206080466,0,-1.7976931348623157e+308]},"properties":{"OBJECTID":167,"Join_Count":0,"TARGET_FID":167,"åç§°":"子语幼儿园","POLY_AREA":0,"å°å­¦æ":0,"Shape_Leng":285.268343341,"Shape_Ar_1":4425.96310268,"Shape_Le_1":0.00289785703903,"Shape_Area":4.32898251323e-7,"name":"子语幼儿园","rate":0,"ORIG_FID":166}},
{"type":"Feature","geometry":{"type":"Point","coordinates":[108.88691598028802,34.21908798560314,0,-1.7976931348623157e+308]},"properties":{"OBJECTID":168,"Join_Count":0,"TARGET_FID":182,"åç§°":"林凯花园","POLY_AREA":0,"å°å­¦æ":0,"Shape_Leng":405.671186524,"Shape_Ar_1":5866.46363211,"Shape_Le_1":0.00425322523854,"Shape_Area":5.73856216584e-7,"name":"林凯花园","rate":0,"ORIG_FID":167}},
{"type":"Feature","geometry":{"type":"Point","coordinates":[108.88695264409068,34.221081763931245,0,-1.7976931348623157e+308]},"properties":{"OBJECTID":169,"Join_Count":0,"TARGET_FID":184,"åç§°":"地电广场","POLY_AREA":0,"å°å­¦æ":0,"Shape_Leng":352.320998816,"Shape_Ar_1":7323.40311299,"Shape_Le_1":0.00355209523854,"Shape_Area":7.16390442477e-7,"name":"地电广场","rate":0,"ORIG_FID":168}},
{"type":"Feature","geometry":{"type":"Point","coordinates":[108.88678082123589,34.21736789937153,0,-1.7976931348623157e+308]},"properties":{"OBJECTID":170,"Join_Count":0,"TARGET_FID":186,"åç§°":"旺座现代城","POLY_AREA":0,"å°å­¦æ":0,"Shape_Leng":796.02495422,"Shape_Ar_1":33152.5290541,"Shape_Le_1":0.00808062067858,"Shape_Area":0.00000324290233165,"name":"旺座现代城","rate":0,"ORIG_FID":169}},
{"type":"Feature","geometry":{"type":"Point","coordinates":[108.8861718984809,34.21384950880901,0,-1.7976931348623157e+308]},"properties":{"OBJECTID":171,"Join_Count":0,"TARGET_FID":187,"åç§°":"陕西投资大厦","POLY_AREA":0,"å°å­¦æ":0,"Shape_Leng":454.882676461,"Shape_Ar_1":10311.4276051,"Shape_Le_1":0.004737952139,"Shape_Area":0.00000100859307321,"name":"陕西投资大厦","rate":0,"ORIG_FID":170}},
{"type":"Feature","geometry":{"type":"Point","coordinates":[108.88717842226522,34.215544551860745,0,-1.7976931348623157e+308]},"properties":{"OBJECTID":172,"Join_Count":0,"TARGET_FID":188,"åç§°":"尚品国际","POLY_AREA":0,"å°å­¦æ":0,"Shape_Leng":685.634110668,"Shape_Ar_1":30739.3718014,"Shape_Le_1":0.00686889303219,"Shape_Area":0.00000300679177379,"name":"尚品国际","rate":0,"ORIG_FID":171}},
{"type":"Feature","geometry":{"type":"Point","coordinates":[108.88577717578184,34.21584249185322,0,-1.7976931348623157e+308]},"properties":{"OBJECTID":173,"Join_Count":0,"TARGET_FID":189,"åç§°":"冠城国际","POLY_AREA":0,"å°å­¦æ":0,"Shape_Leng":379.852816524,"Shape_Ar_1":9147.86633058,"Shape_Le_1":0.00372126707202,"Shape_Area":8.94805967268e-7,"name":"冠城国际","rate":0,"ORIG_FID":172}},
{"type":"Feature","geometry":{"type":"Point","coordinates":[108.89304892923498,34.21235836065648,0,-1.7976931348623157e+308]},"properties":{"OBJECTID":174,"Join_Count":0,"TARGET_FID":190,"åç§°":"天地源兰亭坊","POLY_AREA":0,"å°å­¦æ":0,"Shape_Leng":807.77806782,"Shape_Ar_1":41373.2697597,"Shape_Le_1":0.00801033406315,"Shape_Area":0.00000404682274849,"name":"天地源兰亭坊","rate":0,"ORIG_FID":173}},
{"type":"Feature","geometry":{"type":"Point","coordinates":[108.89304820105599,34.21021410802472,0,-1.7976931348623157e+308]},"properties":{"OBJECTID":175,"Join_Count":0,"TARGET_FID":191,"åç§°":"天地源兰亭坊二期","POLY_AREA":0,"å°å­¦æ":0,"Shape_Leng":651.802791459,"Shape_Ar_1":21665.2304568,"Shape_Le_1":0.00654916113614,"Shape_Area":0.00000211907657527,"name":"天地源兰亭坊二期","rate":0,"ORIG_FID":174}},
{"type":"Feature","geometry":{"type":"Point","coordinates":[108.90560100610136,34.21774522104299,0,-1.7976931348623157e+308]},"properties":{"OBJECTID":176,"Join_Count":0,"TARGET_FID":195,"åç§°":"岭南郡","POLY_AREA":0,"å°å­¦æ":0,"Shape_Leng":1215.76672155,"Shape_Ar_1":64483.457146,"Shape_Le_1":0.0118911831316,"Shape_Area":0.00000630773618301,"name":"岭南郡","rate":0,"ORIG_FID":175}},
{"type":"Feature","geometry":{"type":"Point","coordinates":[108.90231308348062,34.221060386573456,0,-1.7976931348623157e+308]},"properties":{"OBJECTID":177,"Join_Count":0,"TARGET_FID":196,"åç§°":"高新文理幼儿园","POLY_AREA":0,"å°å­¦æ":0,"Shape_Leng":284.555218865,"Shape_Ar_1":3806.21259403,"Shape_Le_1":0.00290450175612,"Shape_Area":3.72336227599e-7,"name":"高新文理幼儿园","rate":0,"ORIG_FID":176}},
{"type":"Feature","geometry":{"type":"Point","coordinates":[108.89055889857518,34.2099632738576,0,-1.7976931348623157e+308]},"properties":{"OBJECTID":178,"Join_Count":0,"TARGET_FID":199,"åç§°":"公园时光","POLY_AREA":0,"å°å­¦æ":0,"Shape_Leng":678.710535261,"Shape_Ar_1":29075.8365191,"Shape_Le_1":0.00667197902977,"Shape_Area":0.00000284389383996,"name":"公园时光","rate":0,"ORIG_FID":177}},
{"type":"Feature","geometry":{"type":"Point","coordinates":[108.88651792067097,34.21858514032139,0,-1.7976931348623157e+308]},"properties":{"OBJECTID":179,"Join_Count":0,"TARGET_FID":202,"åç§°":"CLASS国际公馆","POLY_AREA":0,"å°å­¦æ":0,"Shape_Leng":579.539146663,"Shape_Ar_1":16014.3249098,"Shape_Le_1":0.00605459223411,"Shape_Area":0.00000156650132373,"name":"CLASS国际公馆","rate":0,"ORIG_FID":178}},
{"type":"Feature","geometry":{"type":"Point","coordinates":[108.88646496311361,34.214450662602424,0,-1.7976931348623157e+308]},"properties":{"OBJECTID":180,"Join_Count":0,"TARGET_FID":203,"åç§°":"创业公寓","POLY_AREA":0,"å°å­¦æ":0,"Shape_Leng":565.229374616,"Shape_Ar_1":14443.8338382,"Shape_Le_1":0.00590500314153,"Shape_Area":0.00000141280935161,"name":"创业公寓","rate":0,"ORIG_FID":179}},
{"type":"Feature","geometry":{"type":"Point","coordinates":[108.89541904128964,34.21259417863386,0,-1.7976931348623157e+308]},"properties":{"OBJECTID":181,"Join_Count":0,"TARGET_FID":204,"åç§°":"木塔永和坊","POLY_AREA":0,"å°å­¦æ":0,"Shape_Leng":585.469142823,"Shape_Ar_1":22098.5746057,"Shape_Le_1":0.00582448206546,"Shape_Area":0.00000216153022655,"name":"木塔永和坊","rate":0,"ORIG_FID":180}},
{"type":"Feature","geometry":{"type":"Point","coordinates":[108.89651155496657,34.20991684670185,0,-1.7976931348623157e+308]},"properties":{"OBJECTID":182,"Join_Count":0,"TARGET_FID":205,"åç§°":"太白里","POLY_AREA":0,"å°å­¦æ":0,"Shape_Leng":820.402155176,"Shape_Ar_1":34296.5125731,"Shape_Le_1":0.00824772572917,"Shape_Area":0.00000335454152321,"name":"太白里","rate":0,"ORIG_FID":181}},
{"type":"Feature","geometry":{"type":"Point","coordinates":[108.90748363793216,34.238967008539234,0,-1.7976931348623157e+308]},"properties":{"OBJECTID":183,"Join_Count":2,"TARGET_FID":7,"åç§°":"市政小区","POLY_AREA":31526.7948627,"å°å­¦æ":1,"Shape_Leng":350.249959436,"Shape_Ar_1":7682.65448441,"Shape_Le_1":0.00352078063848,"Shape_Area":7.51702062679e-7,"name":"市政小区","rate":1,"ORIG_FID":182}},
{"type":"Feature","geometry":{"type":"Point","coordinates":[108.90096699022831,34.23354674387171,0,-1.7976931348623157e+308]},"properties":{"OBJECTID":184,"Join_Count":2,"TARGET_FID":9,"åç§°":"枫叶高层小区","POLY_AREA":36125.253583,"å°å­¦æ":1,"Shape_Leng":321.276727859,"Shape_Ar_1":6334.11473655,"Shape_Le_1":0.00317975842833,"Shape_Area":6.19713873082e-7,"name":"枫叶高层小区","rate":1,"ORIG_FID":183}},
{"type":"Feature","geometry":{"type":"Point","coordinates":[108.90199309818576,34.23544676593721,0,-1.7976931348623157e+308]},"properties":{"OBJECTID":185,"Join_Count":4,"TARGET_FID":10,"åç§°":"新汇大厦","POLY_AREA":64851.4298288,"å°å­¦æ":1,"Shape_Leng":212.408309098,"Shape_Ar_1":2722.54183227,"Shape_Le_1":0.00210508900521,"Shape_Area":2.66372743836e-7,"name":"新汇大厦","rate":1,"ORIG_FID":184}},
{"type":"Feature","geometry":{"type":"Point","coordinates":[108.90375475244173,34.236305036650236,0,-1.7976931348623157e+308]},"properties":{"OBJECTID":186,"Join_Count":8,"TARGET_FID":12,"åç§°":"糜家桥小区","POLY_AREA":30814.2225865,"å°å­¦æ":1,"Shape_Leng":698.612478642,"Shape_Ar_1":25736.4792732,"Shape_Le_1":0.00677704803492,"Shape_Area":0.00000251807802567,"name":"糜家桥小区","rate":1,"ORIG_FID":185}},
{"type":"Feature","geometry":{"type":"Point","coordinates":[108.90203583683349,34.232852031645024,0,-1.7976931348623157e+308]},"properties":{"OBJECTID":187,"Join_Count":6,"TARGET_FID":26,"åç§°":"二十所社区","POLY_AREA":36125.253583,"å°å­¦æ":1,"Shape_Leng":306.727835112,"Shape_Ar_1":5877.69320214,"Shape_Le_1":0.00306085112252,"Shape_Area":5.75054428262e-7,"name":"二十所社区","rate":1,"ORIG_FID":186}},
{"type":"Feature","geometry":{"type":"Point","coordinates":[108.89706878679911,34.233649223290605,0,-1.7976931348623157e+308]},"properties":{"OBJECTID":188,"Join_Count":2,"TARGET_FID":28,"åç§°":"欧锦园","POLY_AREA":3955.70660567,"å°å­¦æ":1,"Shape_Leng":215.414266175,"Shape_Ar_1":2623.95523743,"Shape_Le_1":0.00217544441823,"Shape_Area":2.56720613979e-7,"name":"欧锦园","rate":1,"ORIG_FID":187}},
{"type":"Feature","geometry":{"type":"Point","coordinates":[108.90160914731052,34.2309652872624,0,-1.7976931348623157e+308]},"properties":{"OBJECTID":189,"Join_Count":5,"TARGET_FID":39,"åç§°":"阳光公寓","POLY_AREA":3695.57972505,"å°å­¦æ":1,"Shape_Leng":203.697715928,"Shape_Ar_1":2482.44195973,"Shape_Le_1":0.00205136136122,"Shape_Area":2.42868813839e-7,"name":"阳光公寓","rate":1,"ORIG_FID":188}},
{"type":"Feature","geometry":{"type":"Point","coordinates":[108.90912799726456,34.22483096378716,0,-1.7976931348623157e+308]},"properties":{"OBJECTID":190,"Join_Count":4,"TARGET_FID":63,"åç§°":"丽湾蓝岛","POLY_AREA":14423.0079934,"å°å­¦æ":1,"Shape_Leng":497.635570187,"Shape_Ar_1":14423.0070089,"Shape_Le_1":0.00501507478139,"Shape_Area":0.00000141097480427,"name":"丽湾蓝岛","rate":1,"ORIG_FID":189}},
{"type":"Feature","geometry":{"type":"Point","coordinates":[108.91051430450867,34.22460885818314,0,-1.7976931348623157e+308]},"properties":{"OBJECTID":191,"Join_Count":3,"TARGET_FID":64,"åç§°":"正茂广场","POLY_AREA":14423.0079934,"å°å­¦æ":1,"Shape_Leng":295.205272879,"Shape_Ar_1":5359.16508112,"Shape_Le_1":0.0029551322912,"Shape_Area":5.24276215074e-7,"name":"正茂广场","rate":1,"ORIG_FID":190}},
{"type":"Feature","geometry":{"type":"Point","coordinates":[108.90994290917494,34.22534227527586,0,-1.7976931348623157e+308]},"properties":{"OBJECTID":192,"Join_Count":4,"TARGET_FID":65,"åç§°":"上上城","POLY_AREA":14423.0079934,"å°å­¦æ":1,"Shape_Leng":342.598120537,"Shape_Ar_1":7333.46552356,"Shape_Le_1":0.00341678080351,"Shape_Area":7.17423717209e-7,"name":"上上城","rate":1,"ORIG_FID":191}},
{"type":"Feature","geometry":{"type":"Point","coordinates":[108.90916679218341,34.22570406062737,0,-1.7976931348623157e+308]},"properties":{"OBJECTID":193,"Join_Count":3,"TARGET_FID":66,"åç§°":"融鑫电信小区","POLY_AREA":14423.0079934,"å°å­¦æ":1,"Shape_Leng":320.956797188,"Shape_Ar_1":6427.54848108,"Shape_Le_1":0.00319179717894,"Shape_Area":6.28801962513e-7,"name":"融鑫电信小区","rate":1,"ORIG_FID":192}},
{"type":"Feature","geometry":{"type":"Point","coordinates":[108.90428159631705,34.230354691223894,0,-1.7976931348623157e+308]},"properties":{"OBJECTID":194,"Join_Count":4,"TARGET_FID":70,"åç§°":"萨菲尔名邸","POLY_AREA":4125.47995994,"å°å­¦æ":1,"Shape_Leng":211.985077567,"Shape_Ar_1":2791.15292067,"Shape_Le_1":0.00212053705153,"Shape_Area":2.73069882625e-7,"name":"萨菲尔名邸","rate":1,"ORIG_FID":193}},
{"type":"Feature","geometry":{"type":"Point","coordinates":[108.90228143773352,34.22884955938172,0,-1.7976931348623157e+308]},"properties":{"OBJECTID":195,"Join_Count":4,"TARGET_FID":75,"åç§°":"唐南大厦","POLY_AREA":15354.6163651,"å°å­¦æ":1,"Shape_Leng":281.592402315,"Shape_Ar_1":3423.40445047,"Shape_Le_1":0.00288482240649,"Shape_Area":3.3491877127e-7,"name":"唐南大厦","rate":1,"ORIG_FID":194}},
{"type":"Feature","geometry":{"type":"Point","coordinates":[108.90328717837367,34.23036115978335,0,-1.7976931348623157e+308]},"properties":{"OBJECTID":196,"Join_Count":2,"TARGET_FID":89,"åç§°":"科技路小区","POLY_AREA":15354.6163651,"å°å­¦æ":1,"Shape_Leng":372.823344118,"Shape_Ar_1":7787.67306523,"Shape_Le_1":0.0037448984629,"Shape_Area":7.61899597034e-7,"name":"科技路小区","rate":1,"ORIG_FID":195}},
{"type":"Feature","geometry":{"type":"Point","coordinates":[108.90846298640946,34.22682891157648,0,-1.7976931348623157e+308]},"properties":{"OBJECTID":197,"Join_Count":3,"TARGET_FID":90,"åç§°":"科技路社区","POLY_AREA":14695.2567194,"å°å­¦æ":1,"Shape_Leng":370.709283579,"Shape_Ar_1":7009.99794455,"Shape_Le_1":0.00376869250527,"Shape_Area":6.85791035336e-7,"name":"科技路社区","rate":1,"ORIG_FID":196}},
{"type":"Feature","geometry":{"type":"Point","coordinates":[108.86980157218068,34.23791188498569,0,-1.7976931348623157e+308]},"properties":{"OBJECTID":198,"Join_Count":4,"TARGET_FID":110,"åç§°":"铂锐小区","POLY_AREA":54590.9201268,"å°å­¦æ":1,"Shape_Leng":584.306864928,"Shape_Ar_1":16406.43761,"Shape_Le_1":0.00559370510004,"Shape_Area":0.00000160520114463,"name":"铂锐小区","rate":1,"ORIG_FID":197}},
{"type":"Feature","geometry":{"type":"Point","coordinates":[108.87513911105192,34.23860603690053,0,-1.7976931348623157e+308]},"properties":{"OBJECTID":199,"Join_Count":5,"TARGET_FID":113,"åç§°":"考试中心","POLY_AREA":5183.20632461,"å°å­¦æ":1,"Shape_Leng":359.124878044,"Shape_Ar_1":5011.39921787,"Shape_Le_1":0.00377065859871,"Shape_Area":4.90320468161e-7,"name":"考试中心","rate":1,"ORIG_FID":198}},
{"type":"Feature","geometry":{"type":"Point","coordinates":[108.89896247771918,34.207868081185815,0,-1.7976931348623157e+308]},"properties":{"OBJECTID":200,"Join_Count":5,"TARGET_FID":135,"åç§°":"罗曼公社","POLY_AREA":22342.6194859,"å°å­¦æ":1,"Shape_Leng":373.515167533,"Shape_Ar_1":7748.46091224,"Shape_Le_1":0.00386911679999,"Shape_Area":7.57860998236e-7,"name":"罗曼公社","rate":1,"ORIG_FID":199}},
{"type":"Feature","geometry":{"type":"Point","coordinates":[108.89918605851928,34.2083596490349,0,-1.7976931348623157e+308]},"properties":{"OBJECTID":201,"Join_Count":10,"TARGET_FID":140,"åç§°":"金石 柏朗","POLY_AREA":22342.6194859,"å°å­¦æ":1,"Shape_Leng":313.544783406,"Shape_Ar_1":4901.66495718,"Shape_Le_1":0.00322466115687,"Shape_Area":4.79423951114e-7,"name":"金石 柏朗","rate":1,"ORIG_FID":200}},
{"type":"Feature","geometry":{"type":"Point","coordinates":[108.91857166188016,34.214582094006424,0,-1.7976931348623157e+308]},"properties":{"OBJECTID":202,"Join_Count":6,"TARGET_FID":158,"åç§°":"春雷幼儿园","POLY_AREA":17278.7538753,"å°å­¦æ":1,"Shape_Leng":291.100590136,"Shape_Ar_1":4165.35029311,"Shape_Le_1":0.00288974693316,"Shape_Area":4.07443560212e-7,"name":"春雷幼儿园","rate":1,"ORIG_FID":201}},
{"type":"Feature","geometry":{"type":"Point","coordinates":[108.91720149490904,34.214487421753084,0,-1.7976931348623157e+308]},"properties":{"OBJECTID":203,"Join_Count":8,"TARGET_FID":159,"åç§°":"航天210所幼儿园","POLY_AREA":17756.7806244,"å°å­¦æ":1,"Shape_Leng":151.551763286,"Shape_Ar_1":1363.14612024,"Shape_Le_1":0.00149284194635,"Shape_Area":1.33338784495e-7,"name":"航天210所幼儿园","rate":1,"ORIG_FID":202}},
{"type":"Feature","geometry":{"type":"Point","coordinates":[108.91764284076733,34.21220018900673,0,-1.7976931348623157e+308]},"properties":{"OBJECTID":204,"Join_Count":7,"TARGET_FID":170,"åç§°":"电子花园","POLY_AREA":10740.0551588,"å°å­¦æ":1,"Shape_Leng":411.92039969,"Shape_Ar_1":9378.7766211,"Shape_Le_1":0.00404786667079,"Shape_Area":9.17379628379e-7,"name":"电子花园","rate":1,"ORIG_FID":203}},
{"type":"Feature","geometry":{"type":"Point","coordinates":[108.88866107400047,34.21889305338255,0,-1.7976931348623157e+308]},"properties":{"OBJECTID":205,"Join_Count":3,"TARGET_FID":180,"åç§°":"吉的堡幼儿园","POLY_AREA":7034.57048108,"å°å­¦æ":1,"Shape_Leng":252.963648558,"Shape_Ar_1":3306.5358403,"Shape_Le_1":0.00257340856567,"Shape_Area":3.2344358706e-7,"name":"吉的堡幼儿园","rate":1,"ORIG_FID":204}},
{"type":"Feature","geometry":{"type":"Point","coordinates":[108.90347958021873,34.21547128386897,0,-1.7976931348623157e+308]},"properties":{"OBJECTID":206,"Join_Count":2,"TARGET_FID":201,"åç§°":"沙井新村","POLY_AREA":17678.7260515,"å°å­¦æ":1,"Shape_Leng":560.311535356,"Shape_Ar_1":15697.5346393,"Shape_Le_1":0.00560864440297,"Shape_Area":0.00000153548335171,"name":"沙井新村","rate":1,"ORIG_FID":205}}
]}